,name_json,source,layer,lat,lon,validtime_start,validtime_end,addendum_json_details,street
0,,atlas_andriveaugoujon_1849,street,48.880363481889844,2.343770785039535,1848,1850,"{""title"": ""Plan de Paris comprenant l'enceinte des fortifications. J. Andriveau-Goujon, éditeur, 1849"", ""reference"": ""https://bibliotheques-specialisees.paris.fr/ark:/73873/pf0000852422"", ""description"": ""Plan de Paris comprenant l'enceinte des fortifications. J. Andriveau-Goujon, éditeur, 1849""}",Cité Rodier
1,,atlas_andriveaugoujon_1849,street,48.852952210814344,2.3761636925707887,1848,1850,"{""title"": ""Plan de Paris comprenant l'enceinte des fortifications. J. Andriveau-Goujon, éditeur, 1849"", ""reference"": ""https://bibliotheques-specialisees.paris.fr/ark:/73873/pf0000852422"", ""description"": ""Plan de Paris comprenant l'enceinte des fortifications. J. Andriveau-Goujon, éditeur, 1849""}",Passage Saint-Antoine
2,,atlas_andriveaugoujon_1849,street,48.87018067733063,2.3368719983742254,1848,1850,"{""title"": ""Plan de Paris comprenant l'enceinte des fortifications. J. Andriveau-Goujon, éditeur, 1849"", ""reference"": ""https://bibliotheques-specialisees.paris.fr/ark:/73873/pf0000852422"", ""description"": ""Plan de Paris comprenant l'enceinte des fortifications. J. Andriveau-Goujon, éditeur, 1849""}",Rue Grammont
3,,atlas_andriveaugoujon_1849,street,48.868236074246404,2.3492471085694837,1848,1850,"{""title"": ""Plan de Paris comprenant l'enceinte des fortifications. J. Andriveau-Goujon, éditeur, 1849"", ""reference"": ""https://bibliotheques-specialisees.paris.fr/ark:/73873/pf0000852422"", ""description"": ""Plan de Paris comprenant l'enceinte des fortifications. J. Andriveau-Goujon, éditeur, 1849""}",Passage Sainte-Foy
4,,atlas_andriveaugoujon_1849,street,48.868460751059885,2.3513297076425212,1848,1850,"{""title"": ""Plan de Paris comprenant l'enceinte des fortifications. J. Andriveau-Goujon, éditeur, 1849"", ""reference"": ""https://bibliotheques-specialisees.paris.fr/ark:/73873/pf0000852422"", ""description"": ""Plan de Paris comprenant l'enceinte des fortifications. J. Andriveau-Goujon, éditeur, 1849""}",Passage Sainte-Foy
5,,atlas_andriveaugoujon_1849,street,48.850519149442874,2.3481939123777584,1848,1850,"{""title"": ""Plan de Paris comprenant l'enceinte des fortifications. J. Andriveau-Goujon, éditeur, 1849"", ""reference"": ""https://bibliotheques-specialisees.paris.fr/ark:/73873/pf0000852422"", ""description"": ""Plan de Paris comprenant l'enceinte des fortifications. J. Andriveau-Goujon, éditeur, 1849""}",Rue Des Lavandières
6,,atlas_andriveaugoujon_1849,street,48.86230804987758,2.3448941674178156,1848,1850,"{""title"": ""Plan de Paris comprenant l'enceinte des fortifications. J. Andriveau-Goujon, éditeur, 1849"", ""reference"": ""https://bibliotheques-specialisees.paris.fr/ark:/73873/pf0000852422"", ""description"": ""Plan de Paris comprenant l'enceinte des fortifications. J. Andriveau-Goujon, éditeur, 1849""}",Passage Des Prouvaires
7,,atlas_andriveaugoujon_1849,street,48.84283137114749,2.352113778958423,1848,1850,"{""title"": ""Plan de Paris comprenant l'enceinte des fortifications. J. Andriveau-Goujon, éditeur, 1849"", ""reference"": ""https://bibliotheques-specialisees.paris.fr/ark:/73873/pf0000852422"", ""description"": ""Plan de Paris comprenant l'enceinte des fortifications. J. Andriveau-Goujon, éditeur, 1849""}",Rue Triperet
8,,atlas_andriveaugoujon_1849,street,48.850445753257176,2.3392595789186483,1848,1850,"{""title"": ""Plan de Paris comprenant l'enceinte des fortifications. J. Andriveau-Goujon, éditeur, 1849"", ""reference"": ""https://bibliotheques-specialisees.paris.fr/ark:/73873/pf0000852422"", ""description"": ""Plan de Paris comprenant l'enceinte des fortifications. J. Andriveau-Goujon, éditeur, 1849""}",Rue Voltaire
9,,atlas_andriveaugoujon_1849,street,48.85132047807537,2.340602976980356,1848,1850,"{""title"": ""Plan de Paris comprenant l'enceinte des fortifications. J. Andriveau-Goujon, éditeur, 1849"", ""reference"": ""https://bibliotheques-specialisees.paris.fr/ark:/73873/pf0000852422"", ""description"": ""Plan de Paris comprenant l'enceinte des fortifications. J. Andriveau-Goujon, éditeur, 1849""}",Rue De L'École De Médecine
10,,atlas_andriveaugoujon_1849,street,48.87122507081941,2.3079644953345233,1848,1850,"{""title"": ""Plan de Paris comprenant l'enceinte des fortifications. J. Andriveau-Goujon, éditeur, 1849"", ""reference"": ""https://bibliotheques-specialisees.paris.fr/ark:/73873/pf0000852422"", ""description"": ""Plan de Paris comprenant l'enceinte des fortifications. J. Andriveau-Goujon, éditeur, 1849""}",Rue De Ponthieu
11,,atlas_andriveaugoujon_1849,street,48.86432126071578,2.350650249894794,1848,1850,"{""title"": ""Plan de Paris comprenant l'enceinte des fortifications. J. Andriveau-Goujon, éditeur, 1849"", ""reference"": ""https://bibliotheques-specialisees.paris.fr/ark:/73873/pf0000852422"", ""description"": ""Plan de Paris comprenant l'enceinte des fortifications. J. Andriveau-Goujon, éditeur, 1849""}",Rue Du Petit Hurleur
12,,atlas_andriveaugoujon_1849,street,48.85393463664674,2.373443824850459,1848,1850,"{""title"": ""Plan de Paris comprenant l'enceinte des fortifications. J. Andriveau-Goujon, éditeur, 1849"", ""reference"": ""https://bibliotheques-specialisees.paris.fr/ark:/73873/pf0000852422"", ""description"": ""Plan de Paris comprenant l'enceinte des fortifications. J. Andriveau-Goujon, éditeur, 1849""}",Passage Thierre
13,,atlas_andriveaugoujon_1849,street,48.84766520458651,2.3310201893201588,1848,1850,"{""title"": ""Plan de Paris comprenant l'enceinte des fortifications. J. Andriveau-Goujon, éditeur, 1849"", ""reference"": ""https://bibliotheques-specialisees.paris.fr/ark:/73873/pf0000852422"", ""description"": ""Plan de Paris comprenant l'enceinte des fortifications. J. Andriveau-Goujon, éditeur, 1849""}",Rue Jean-Bart
14,,atlas_andriveaugoujon_1849,street,48.855257108189306,2.337248226797053,1848,1850,"{""title"": ""Plan de Paris comprenant l'enceinte des fortifications. J. Andriveau-Goujon, éditeur, 1849"", ""reference"": ""https://bibliotheques-specialisees.paris.fr/ark:/73873/pf0000852422"", ""description"": ""Plan de Paris comprenant l'enceinte des fortifications. J. Andriveau-Goujon, éditeur, 1849""}",Passage Du Pont Neuf
15,,atlas_andriveaugoujon_1849,street,48.861043217134,2.3359366319449295,1848,1850,"{""title"": ""Plan de Paris comprenant l'enceinte des fortifications. J. Andriveau-Goujon, éditeur, 1849"", ""reference"": ""https://bibliotheques-specialisees.paris.fr/ark:/73873/pf0000852422"", ""description"": ""Plan de Paris comprenant l'enceinte des fortifications. J. Andriveau-Goujon, éditeur, 1849""}",Rue Du Caroussel
16,,atlas_andriveaugoujon_1849,street,48.86070460356933,2.3538575772313823,1848,1850,"{""title"": ""Plan de Paris comprenant l'enceinte des fortifications. J. Andriveau-Goujon, éditeur, 1849"", ""reference"": ""https://bibliotheques-specialisees.paris.fr/ark:/73873/pf0000852422"", ""description"": ""Plan de Paris comprenant l'enceinte des fortifications. J. Andriveau-Goujon, éditeur, 1849""}",Rue Geoffroy Langevin
17,,atlas_andriveaugoujon_1849,street,48.85403616316232,2.344576195840266,1848,1850,"{""title"": ""Plan de Paris comprenant l'enceinte des fortifications. J. Andriveau-Goujon, éditeur, 1849"", ""reference"": ""https://bibliotheques-specialisees.paris.fr/ark:/73873/pf0000852422"", ""description"": ""Plan de Paris comprenant l'enceinte des fortifications. J. Andriveau-Goujon, éditeur, 1849""}",Pont Saint-Michel
18,,atlas_andriveaugoujon_1849,street,48.84657847518523,2.3187958381133718,1848,1850,"{""title"": ""Plan de Paris comprenant l'enceinte des fortifications. J. Andriveau-Goujon, éditeur, 1849"", ""reference"": ""https://bibliotheques-specialisees.paris.fr/ark:/73873/pf0000852422"", ""description"": ""Plan de Paris comprenant l'enceinte des fortifications. J. Andriveau-Goujon, éditeur, 1849""}",Rue Mayet
19,,atlas_andriveaugoujon_1849,street,48.86492051024403,2.3352031626166205,1848,1850,"{""title"": ""Plan de Paris comprenant l'enceinte des fortifications. J. Andriveau-Goujon, éditeur, 1849"", ""reference"": ""https://bibliotheques-specialisees.paris.fr/ark:/73873/pf0000852422"", ""description"": ""Plan de Paris comprenant l'enceinte des fortifications. J. Andriveau-Goujon, éditeur, 1849""}",Rue Clos Georgot
20,,atlas_andriveaugoujon_1849,street,48.83273978706471,2.3510417329587927,1848,1850,"{""title"": ""Plan de Paris comprenant l'enceinte des fortifications. J. Andriveau-Goujon, éditeur, 1849"", ""reference"": ""https://bibliotheques-specialisees.paris.fr/ark:/73873/pf0000852422"", ""description"": ""Plan de Paris comprenant l'enceinte des fortifications. J. Andriveau-Goujon, éditeur, 1849""}",Rue Croulebarbe
21,,atlas_andriveaugoujon_1849,street,48.86512959808841,2.342820336221732,1848,1850,"{""title"": ""Plan de Paris comprenant l'enceinte des fortifications. J. Andriveau-Goujon, éditeur, 1849"", ""reference"": ""https://bibliotheques-specialisees.paris.fr/ark:/73873/pf0000852422"", ""description"": ""Plan de Paris comprenant l'enceinte des fortifications. J. Andriveau-Goujon, éditeur, 1849""}",Rue Pageoin
22,,atlas_andriveaugoujon_1849,street,48.8370243444876,2.3374614378390817,1848,1850,"{""title"": ""Plan de Paris comprenant l'enceinte des fortifications. J. Andriveau-Goujon, éditeur, 1849"", ""reference"": ""https://bibliotheques-specialisees.paris.fr/ark:/73873/pf0000852422"", ""description"": ""Plan de Paris comprenant l'enceinte des fortifications. J. Andriveau-Goujon, éditeur, 1849""}",Rue Cassini
23,,atlas_andriveaugoujon_1849,street,48.84222477881547,2.3515459801303122,1848,1850,"{""title"": ""Plan de Paris comprenant l'enceinte des fortifications. J. Andriveau-Goujon, éditeur, 1849"", ""reference"": ""https://bibliotheques-specialisees.paris.fr/ark:/73873/pf0000852422"", ""description"": ""Plan de Paris comprenant l'enceinte des fortifications. J. Andriveau-Goujon, éditeur, 1849""}",Rue Gracieuse
24,,atlas_andriveaugoujon_1849,street,48.85483921684547,2.359628170614314,1848,1850,"{""title"": ""Plan de Paris comprenant l'enceinte des fortifications. J. Andriveau-Goujon, éditeur, 1849"", ""reference"": ""https://bibliotheques-specialisees.paris.fr/ark:/73873/pf0000852422"", ""description"": ""Plan de Paris comprenant l'enceinte des fortifications. J. Andriveau-Goujon, éditeur, 1849""}",Rue Percée
25,,atlas_andriveaugoujon_1849,street,48.852237101458925,2.3435780073709735,1848,1850,"{""title"": ""Plan de Paris comprenant l'enceinte des fortifications. J. Andriveau-Goujon, éditeur, 1849"", ""reference"": ""https://bibliotheques-specialisees.paris.fr/ark:/73873/pf0000852422"", ""description"": ""Plan de Paris comprenant l'enceinte des fortifications. J. Andriveau-Goujon, éditeur, 1849""}",Rue Percée
26,,atlas_andriveaugoujon_1849,street,48.83958855310953,2.369848872571013,1848,1850,"{""title"": ""Plan de Paris comprenant l'enceinte des fortifications. J. Andriveau-Goujon, éditeur, 1849"", ""reference"": ""https://bibliotheques-specialisees.paris.fr/ark:/73873/pf0000852422"", ""description"": ""Plan de Paris comprenant l'enceinte des fortifications. J. Andriveau-Goujon, éditeur, 1849""}",Rue Watt
27,,atlas_andriveaugoujon_1849,street,48.88336882283921,2.3604674682323217,1848,1850,"{""title"": ""Plan de Paris comprenant l'enceinte des fortifications. J. Andriveau-Goujon, éditeur, 1849"", ""reference"": ""https://bibliotheques-specialisees.paris.fr/ark:/73873/pf0000852422"", ""description"": ""Plan de Paris comprenant l'enceinte des fortifications. J. Andriveau-Goujon, éditeur, 1849""}",Rue Des Fossés Saint-Martin
28,,atlas_andriveaugoujon_1849,street,48.86851433874227,2.3352467758370095,1848,1850,"{""title"": ""Plan de Paris comprenant l'enceinte des fortifications. J. Andriveau-Goujon, éditeur, 1849"", ""reference"": ""https://bibliotheques-specialisees.paris.fr/ark:/73873/pf0000852422"", ""description"": ""Plan de Paris comprenant l'enceinte des fortifications. J. Andriveau-Goujon, éditeur, 1849""}",Rue Monsigny
29,,atlas_andriveaugoujon_1849,street,48.863298628224506,2.3562420882479245,1848,1850,"{""title"": ""Plan de Paris comprenant l'enceinte des fortifications. J. Andriveau-Goujon, éditeur, 1849"", ""reference"": ""https://bibliotheques-specialisees.paris.fr/ark:/73873/pf0000852422"", ""description"": ""Plan de Paris comprenant l'enceinte des fortifications. J. Andriveau-Goujon, éditeur, 1849""}",Rue Chapon
30,,atlas_andriveaugoujon_1849,street,48.87344653096922,2.3422735892822897,1848,1850,"{""title"": ""Plan de Paris comprenant l'enceinte des fortifications. J. Andriveau-Goujon, éditeur, 1849"", ""reference"": ""https://bibliotheques-specialisees.paris.fr/ark:/73873/pf0000852422"", ""description"": ""Plan de Paris comprenant l'enceinte des fortifications. J. Andriveau-Goujon, éditeur, 1849""}",Passage Verdeau
31,,atlas_andriveaugoujon_1849,street,48.838104751751,2.349966791859478,1848,1850,"{""title"": ""Plan de Paris comprenant l'enceinte des fortifications. J. Andriveau-Goujon, éditeur, 1849"", ""reference"": ""https://bibliotheques-specialisees.paris.fr/ark:/73873/pf0000852422"", ""description"": ""Plan de Paris comprenant l'enceinte des fortifications. J. Andriveau-Goujon, éditeur, 1849""}",Passage Valence
32,,atlas_andriveaugoujon_1849,street,48.849097648305786,2.3286127828579106,1848,1850,"{""title"": ""Plan de Paris comprenant l'enceinte des fortifications. J. Andriveau-Goujon, éditeur, 1849"", ""reference"": ""https://bibliotheques-specialisees.paris.fr/ark:/73873/pf0000852422"", ""description"": ""Plan de Paris comprenant l'enceinte des fortifications. J. Andriveau-Goujon, éditeur, 1849""}",Rue D'Assas
33,,atlas_andriveaugoujon_1849,street,48.83583515332075,2.351388614272249,1848,1850,"{""title"": ""Plan de Paris comprenant l'enceinte des fortifications. J. Andriveau-Goujon, éditeur, 1849"", ""reference"": ""https://bibliotheques-specialisees.paris.fr/ark:/73873/pf0000852422"", ""description"": ""Plan de Paris comprenant l'enceinte des fortifications. J. Andriveau-Goujon, éditeur, 1849""}",Rue Des Gobelins
34,,atlas_andriveaugoujon_1849,street,48.855753913625705,2.3393229338032766,1848,1850,"{""title"": ""Plan de Paris comprenant l'enceinte des fortifications. J. Andriveau-Goujon, éditeur, 1849"", ""reference"": ""https://bibliotheques-specialisees.paris.fr/ark:/73873/pf0000852422"", ""description"": ""Plan de Paris comprenant l'enceinte des fortifications. J. Andriveau-Goujon, éditeur, 1849""}",Rue De Nevers
35,,atlas_andriveaugoujon_1849,street,48.865216371848106,2.3467596824853634,1848,1850,"{""title"": ""Plan de Paris comprenant l'enceinte des fortifications. J. Andriveau-Goujon, éditeur, 1849"", ""reference"": ""https://bibliotheques-specialisees.paris.fr/ark:/73873/pf0000852422"", ""description"": ""Plan de Paris comprenant l'enceinte des fortifications. J. Andriveau-Goujon, éditeur, 1849""}",Rue Montorgueil
36,,atlas_andriveaugoujon_1849,street,48.8306874014353,2.345580490148664,1848,1850,"{""title"": ""Plan de Paris comprenant l'enceinte des fortifications. J. Andriveau-Goujon, éditeur, 1849"", ""reference"": ""https://bibliotheques-specialisees.paris.fr/ark:/73873/pf0000852422"", ""description"": ""Plan de Paris comprenant l'enceinte des fortifications. J. Andriveau-Goujon, éditeur, 1849""}",Boulevard Des Gobelins
37,,atlas_andriveaugoujon_1849,street,48.865284675962435,2.356640241917906,1848,1850,"{""title"": ""Plan de Paris comprenant l'enceinte des fortifications. J. Andriveau-Goujon, éditeur, 1849"", ""reference"": ""https://bibliotheques-specialisees.paris.fr/ark:/73873/pf0000852422"", ""description"": ""Plan de Paris comprenant l'enceinte des fortifications. J. Andriveau-Goujon, éditeur, 1849""}",Rue Du Marché Saint-Martin
38,,atlas_andriveaugoujon_1849,street,48.86795412349097,2.3345749432707144,1848,1850,"{""title"": ""Plan de Paris comprenant l'enceinte des fortifications. J. Andriveau-Goujon, éditeur, 1849"", ""reference"": ""https://bibliotheques-specialisees.paris.fr/ark:/73873/pf0000852422"", ""description"": ""Plan de Paris comprenant l'enceinte des fortifications. J. Andriveau-Goujon, éditeur, 1849""}",Rue Marsollier
39,,atlas_andriveaugoujon_1849,street,48.86182571069145,2.3526017505124464,1848,1850,"{""title"": ""Plan de Paris comprenant l'enceinte des fortifications. J. Andriveau-Goujon, éditeur, 1849"", ""reference"": ""https://bibliotheques-specialisees.paris.fr/ark:/73873/pf0000852422"", ""description"": ""Plan de Paris comprenant l'enceinte des fortifications. J. Andriveau-Goujon, éditeur, 1849""}",Rue Des Petits Champs
40,,atlas_andriveaugoujon_1849,street,48.85897557937838,2.3311045325389435,1848,1850,"{""title"": ""Plan de Paris comprenant l'enceinte des fortifications. J. Andriveau-Goujon, éditeur, 1849"", ""reference"": ""https://bibliotheques-specialisees.paris.fr/ark:/73873/pf0000852422"", ""description"": ""Plan de Paris comprenant l'enceinte des fortifications. J. Andriveau-Goujon, éditeur, 1849""}",Quai Voltaire
41,,atlas_andriveaugoujon_1849,street,48.871521306273664,2.3505500384996676,1848,1850,"{""title"": ""Plan de Paris comprenant l'enceinte des fortifications. J. Andriveau-Goujon, éditeur, 1849"", ""reference"": ""https://bibliotheques-specialisees.paris.fr/ark:/73873/pf0000852422"", ""description"": ""Plan de Paris comprenant l'enceinte des fortifications. J. Andriveau-Goujon, éditeur, 1849""}",Rue De L'Échiquier
42,,atlas_andriveaugoujon_1849,street,48.87792553764289,2.3239717152922275,1848,1850,"{""title"": ""Plan de Paris comprenant l'enceinte des fortifications. J. Andriveau-Goujon, éditeur, 1849"", ""reference"": ""https://bibliotheques-specialisees.paris.fr/ark:/73873/pf0000852422"", ""description"": ""Plan de Paris comprenant l'enceinte des fortifications. J. Andriveau-Goujon, éditeur, 1849""}",Rue De Rome
43,,atlas_andriveaugoujon_1849,street,48.86724221745488,2.3758584097249584,1848,1850,"{""title"": ""Plan de Paris comprenant l'enceinte des fortifications. J. Andriveau-Goujon, éditeur, 1849"", ""reference"": ""https://bibliotheques-specialisees.paris.fr/ark:/73873/pf0000852422"", ""description"": ""Plan de Paris comprenant l'enceinte des fortifications. J. Andriveau-Goujon, éditeur, 1849""}",Rue Saint-Maur
44,,atlas_andriveaugoujon_1849,street,48.8584434088824,2.3569843187225406,1848,1850,"{""title"": ""Plan de Paris comprenant l'enceinte des fortifications. J. Andriveau-Goujon, éditeur, 1849"", ""reference"": ""https://bibliotheques-specialisees.paris.fr/ark:/73873/pf0000852422"", ""description"": ""Plan de Paris comprenant l'enceinte des fortifications. J. Andriveau-Goujon, éditeur, 1849""}",Rue Du Puits
45,,atlas_andriveaugoujon_1849,street,48.85051728889478,2.33800287909291,1848,1850,"{""title"": ""Plan de Paris comprenant l'enceinte des fortifications. J. Andriveau-Goujon, éditeur, 1849"", ""reference"": ""https://bibliotheques-specialisees.paris.fr/ark:/73873/pf0000852422"", ""description"": ""Plan de Paris comprenant l'enceinte des fortifications. J. Andriveau-Goujon, éditeur, 1849""}",Rue Condé
46,,atlas_andriveaugoujon_1849,street,48.88197607515801,2.3410655909523963,1848,1850,"{""title"": ""Plan de Paris comprenant l'enceinte des fortifications. J. Andriveau-Goujon, éditeur, 1849"", ""reference"": ""https://bibliotheques-specialisees.paris.fr/ark:/73873/pf0000852422"", ""description"": ""Plan de Paris comprenant l'enceinte des fortifications. J. Andriveau-Goujon, éditeur, 1849""}",Ruelle Beauregard
47,,atlas_andriveaugoujon_1849,street,48.853335408699536,2.319356632814296,1848,1850,"{""title"": ""Plan de Paris comprenant l'enceinte des fortifications. J. Andriveau-Goujon, éditeur, 1849"", ""reference"": ""https://bibliotheques-specialisees.paris.fr/ark:/73873/pf0000852422"", ""description"": ""Plan de Paris comprenant l'enceinte des fortifications. J. Andriveau-Goujon, éditeur, 1849""}",Rue Vanneau
48,,atlas_andriveaugoujon_1849,street,48.847182944893966,2.375120778102266,1848,1850,"{""title"": ""Plan de Paris comprenant l'enceinte des fortifications. J. Andriveau-Goujon, éditeur, 1849"", ""reference"": ""https://bibliotheques-specialisees.paris.fr/ark:/73873/pf0000852422"", ""description"": ""Plan de Paris comprenant l'enceinte des fortifications. J. Andriveau-Goujon, éditeur, 1849""}",Rue Beccaria
49,,atlas_andriveaugoujon_1849,street,48.86212622594262,2.3376191866006546,1848,1850,"{""title"": ""Plan de Paris comprenant l'enceinte des fortifications. J. Andriveau-Goujon, éditeur, 1849"", ""reference"": ""https://bibliotheques-specialisees.paris.fr/ark:/73873/pf0000852422"", ""description"": ""Plan de Paris comprenant l'enceinte des fortifications. J. Andriveau-Goujon, éditeur, 1849""}",Rue Pierre Lescot
50,,atlas_andriveaugoujon_1849,street,48.8509272030565,2.3331349271134787,1848,1850,"{""title"": ""Plan de Paris comprenant l'enceinte des fortifications. J. Andriveau-Goujon, éditeur, 1849"", ""reference"": ""https://bibliotheques-specialisees.paris.fr/ark:/73873/pf0000852422"", ""description"": ""Plan de Paris comprenant l'enceinte des fortifications. J. Andriveau-Goujon, éditeur, 1849""}",Place Saint-Sulpice
51,,atlas_andriveaugoujon_1849,street,48.85878569638192,2.3075851891838255,1848,1850,"{""title"": ""Plan de Paris comprenant l'enceinte des fortifications. J. Andriveau-Goujon, éditeur, 1849"", ""reference"": ""https://bibliotheques-specialisees.paris.fr/ark:/73873/pf0000852422"", ""description"": ""Plan de Paris comprenant l'enceinte des fortifications. J. Andriveau-Goujon, éditeur, 1849""}",Rue Amélie
52,,atlas_andriveaugoujon_1849,street,48.87426902918741,2.3027520637854026,1848,1850,"{""title"": ""Plan de Paris comprenant l'enceinte des fortifications. J. Andriveau-Goujon, éditeur, 1849"", ""reference"": ""https://bibliotheques-specialisees.paris.fr/ark:/73873/pf0000852422"", ""description"": ""Plan de Paris comprenant l'enceinte des fortifications. J. Andriveau-Goujon, éditeur, 1849""}",Rue Du Centre
53,,atlas_andriveaugoujon_1849,street,48.85252340431839,2.3639399225364492,1848,1850,"{""title"": ""Plan de Paris comprenant l'enceinte des fortifications. J. Andriveau-Goujon, éditeur, 1849"", ""reference"": ""https://bibliotheques-specialisees.paris.fr/ark:/73873/pf0000852422"", ""description"": ""Plan de Paris comprenant l'enceinte des fortifications. J. Andriveau-Goujon, éditeur, 1849""}",Rue Du Petit-Musc
54,,atlas_andriveaugoujon_1849,street,48.86309890634771,2.3479756799547875,1848,1850,"{""title"": ""Plan de Paris comprenant l'enceinte des fortifications. J. Andriveau-Goujon, éditeur, 1849"", ""reference"": ""https://bibliotheques-specialisees.paris.fr/ark:/73873/pf0000852422"", ""description"": ""Plan de Paris comprenant l'enceinte des fortifications. J. Andriveau-Goujon, éditeur, 1849""}",Rue Mondétour
55,,atlas_andriveaugoujon_1849,street,48.8496045847837,2.3651423210199187,1848,1850,"{""title"": ""Plan de Paris comprenant l'enceinte des fortifications. J. Andriveau-Goujon, éditeur, 1849"", ""reference"": ""https://bibliotheques-specialisees.paris.fr/ark:/73873/pf0000852422"", ""description"": ""Plan de Paris comprenant l'enceinte des fortifications. J. Andriveau-Goujon, éditeur, 1849""}",Rue Mornay
56,,atlas_andriveaugoujon_1849,street,48.87235907331944,2.3629683393986296,1848,1850,"{""title"": ""Plan de Paris comprenant l'enceinte des fortifications. J. Andriveau-Goujon, éditeur, 1849"", ""reference"": ""https://bibliotheques-specialisees.paris.fr/ark:/73873/pf0000852422"", ""description"": ""Plan de Paris comprenant l'enceinte des fortifications. J. Andriveau-Goujon, éditeur, 1849""}",Rue Grange Aux Belles
57,,atlas_andriveaugoujon_1849,street,48.84867344713562,2.3448358532129094,1848,1850,"{""title"": ""Plan de Paris comprenant l'enceinte des fortifications. J. Andriveau-Goujon, éditeur, 1849"", ""reference"": ""https://bibliotheques-specialisees.paris.fr/ark:/73873/pf0000852422"", ""description"": ""Plan de Paris comprenant l'enceinte des fortifications. J. Andriveau-Goujon, éditeur, 1849""}",Rue Du Cimetière Saint-Benoit
58,,atlas_andriveaugoujon_1849,street,48.845804843521,2.3852693823479463,1848,1850,"{""title"": ""Plan de Paris comprenant l'enceinte des fortifications. J. Andriveau-Goujon, éditeur, 1849"", ""reference"": ""https://bibliotheques-specialisees.paris.fr/ark:/73873/pf0000852422"", ""description"": ""Plan de Paris comprenant l'enceinte des fortifications. J. Andriveau-Goujon, éditeur, 1849""}",Petite Rue De Reuilly
59,,atlas_andriveaugoujon_1849,street,48.83814163721532,2.3564394936949173,1848,1850,"{""title"": ""Plan de Paris comprenant l'enceinte des fortifications. J. Andriveau-Goujon, éditeur, 1849"", ""reference"": ""https://bibliotheques-specialisees.paris.fr/ark:/73873/pf0000852422"", ""description"": ""Plan de Paris comprenant l'enceinte des fortifications. J. Andriveau-Goujon, éditeur, 1849""}",Rue Du Cendrier
60,,atlas_andriveaugoujon_1849,street,48.87102992155859,2.322980859863846,1848,1850,"{""title"": ""Plan de Paris comprenant l'enceinte des fortifications. J. Andriveau-Goujon, éditeur, 1849"", ""reference"": ""https://bibliotheques-specialisees.paris.fr/ark:/73873/pf0000852422"", ""description"": ""Plan de Paris comprenant l'enceinte des fortifications. J. Andriveau-Goujon, éditeur, 1849""}",Rue De La Madeleine
61,,atlas_andriveaugoujon_1849,street,48.8635535057309,2.3645406952804264,1848,1850,"{""title"": ""Plan de Paris comprenant l'enceinte des fortifications. J. Andriveau-Goujon, éditeur, 1849"", ""reference"": ""https://bibliotheques-specialisees.paris.fr/ark:/73873/pf0000852422"", ""description"": ""Plan de Paris comprenant l'enceinte des fortifications. J. Andriveau-Goujon, éditeur, 1849""}",Rue Saintonge
62,,atlas_andriveaugoujon_1849,street,48.84973289514937,2.344314776728177,1848,1850,"{""title"": ""Plan de Paris comprenant l'enceinte des fortifications. J. Andriveau-Goujon, éditeur, 1849"", ""reference"": ""https://bibliotheques-specialisees.paris.fr/ark:/73873/pf0000852422"", ""description"": ""Plan de Paris comprenant l'enceinte des fortifications. J. Andriveau-Goujon, éditeur, 1849""}",Rue Du Cloitre Saint-Benoit
63,,atlas_andriveaugoujon_1849,street,48.85169839655572,2.31899688014353,1848,1850,"{""title"": ""Plan de Paris comprenant l'enceinte des fortifications. J. Andriveau-Goujon, éditeur, 1849"", ""reference"": ""https://bibliotheques-specialisees.paris.fr/ark:/73873/pf0000852422"", ""description"": ""Plan de Paris comprenant l'enceinte des fortifications. J. Andriveau-Goujon, éditeur, 1849""}",Rue De Babylone
64,,atlas_andriveaugoujon_1849,street,48.833448439078005,2.3458731249727425,1848,1850,"{""title"": ""Plan de Paris comprenant l'enceinte des fortifications. J. Andriveau-Goujon, éditeur, 1849"", ""reference"": ""https://bibliotheques-specialisees.paris.fr/ark:/73873/pf0000852422"", ""description"": ""Plan de Paris comprenant l'enceinte des fortifications. J. Andriveau-Goujon, éditeur, 1849""}",Rue Des Anglaises
65,,atlas_andriveaugoujon_1849,street,48.862458579064,2.350632689312066,1848,1850,"{""title"": ""Plan de Paris comprenant l'enceinte des fortifications. J. Andriveau-Goujon, éditeur, 1849"", ""reference"": ""https://bibliotheques-specialisees.paris.fr/ark:/73873/pf0000852422"", ""description"": ""Plan de Paris comprenant l'enceinte des fortifications. J. Andriveau-Goujon, éditeur, 1849""}",Passage Beaufort
66,,atlas_andriveaugoujon_1849,street,48.86369254921867,2.3486027531574942,1848,1850,"{""title"": ""Plan de Paris comprenant l'enceinte des fortifications. J. Andriveau-Goujon, éditeur, 1849"", ""reference"": ""https://bibliotheques-specialisees.paris.fr/ark:/73873/pf0000852422"", ""description"": ""Plan de Paris comprenant l'enceinte des fortifications. J. Andriveau-Goujon, éditeur, 1849""}",Rue Des Pélerins Saint-Jacques
67,,atlas_andriveaugoujon_1849,street,48.85356271615135,2.297251352917755,1848,1850,"{""title"": ""Plan de Paris comprenant l'enceinte des fortifications. J. Andriveau-Goujon, éditeur, 1849"", ""reference"": ""https://bibliotheques-specialisees.paris.fr/ark:/73873/pf0000852422"", ""description"": ""Plan de Paris comprenant l'enceinte des fortifications. J. Andriveau-Goujon, éditeur, 1849""}",Avenue De Suffren
68,,atlas_andriveaugoujon_1849,street,48.86572490016149,2.348714729018094,1848,1850,"{""title"": ""Plan de Paris comprenant l'enceinte des fortifications. J. Andriveau-Goujon, éditeur, 1849"", ""reference"": ""https://bibliotheques-specialisees.paris.fr/ark:/73873/pf0000852422"", ""description"": ""Plan de Paris comprenant l'enceinte des fortifications. J. Andriveau-Goujon, éditeur, 1849""}",Rue Des Deux Portes
69,,atlas_andriveaugoujon_1849,street,48.85161726867239,2.3427929040461457,1848,1850,"{""title"": ""Plan de Paris comprenant l'enceinte des fortifications. J. Andriveau-Goujon, éditeur, 1849"", ""reference"": ""https://bibliotheques-specialisees.paris.fr/ark:/73873/pf0000852422"", ""description"": ""Plan de Paris comprenant l'enceinte des fortifications. J. Andriveau-Goujon, éditeur, 1849""}",Rue Des Deux Portes
70,,atlas_andriveaugoujon_1849,street,48.85570276566996,2.3205243948099166,1848,1850,"{""title"": ""Plan de Paris comprenant l'enceinte des fortifications. J. Andriveau-Goujon, éditeur, 1849"", ""reference"": ""https://bibliotheques-specialisees.paris.fr/ark:/73873/pf0000852422"", ""description"": ""Plan de Paris comprenant l'enceinte des fortifications. J. Andriveau-Goujon, éditeur, 1849""}",Rue Hillerin Berlin
71,,atlas_andriveaugoujon_1849,street,48.852789630579075,2.336431699732246,1848,1850,"{""title"": ""Plan de Paris comprenant l'enceinte des fortifications. J. Andriveau-Goujon, éditeur, 1849"", ""reference"": ""https://bibliotheques-specialisees.paris.fr/ark:/73873/pf0000852422"", ""description"": ""Plan de Paris comprenant l'enceinte des fortifications. J. Andriveau-Goujon, éditeur, 1849""}",Passage De La Treille
72,,atlas_andriveaugoujon_1849,street,48.8806701273042,2.348100836098554,1848,1850,"{""title"": ""Plan de Paris comprenant l'enceinte des fortifications. J. Andriveau-Goujon, éditeur, 1849"", ""reference"": ""https://bibliotheques-specialisees.paris.fr/ark:/73873/pf0000852422"", ""description"": ""Plan de Paris comprenant l'enceinte des fortifications. J. Andriveau-Goujon, éditeur, 1849""}",Rue Pétrelle
73,,atlas_andriveaugoujon_1849,street,48.880867900775165,2.3333493081522634,1848,1850,"{""title"": ""Plan de Paris comprenant l'enceinte des fortifications. J. Andriveau-Goujon, éditeur, 1849"", ""reference"": ""https://bibliotheques-specialisees.paris.fr/ark:/73873/pf0000852422"", ""description"": ""Plan de Paris comprenant l'enceinte des fortifications. J. Andriveau-Goujon, éditeur, 1849""}",Rue Chaptal
74,,atlas_andriveaugoujon_1849,street,48.85191528355978,2.334464746575852,1848,1850,"{""title"": ""Plan de Paris comprenant l'enceinte des fortifications. J. Andriveau-Goujon, éditeur, 1849"", ""reference"": ""https://bibliotheques-specialisees.paris.fr/ark:/73873/pf0000852422"", ""description"": ""Plan de Paris comprenant l'enceinte des fortifications. J. Andriveau-Goujon, éditeur, 1849""}",Rue Guisarde
75,,atlas_andriveaugoujon_1849,street,48.84227667427126,2.3600994153918378,1848,1850,"{""title"": ""Plan de Paris comprenant l'enceinte des fortifications. J. Andriveau-Goujon, éditeur, 1849"", ""reference"": ""https://bibliotheques-specialisees.paris.fr/ark:/73873/pf0000852422"", ""description"": ""Plan de Paris comprenant l'enceinte des fortifications. J. Andriveau-Goujon, éditeur, 1849""}",Rue Buffon
76,,atlas_andriveaugoujon_1849,street,48.854900741833816,2.3476442357928424,1848,1850,"{""title"": ""Plan de Paris comprenant l'enceinte des fortifications. J. Andriveau-Goujon, éditeur, 1849"", ""reference"": ""https://bibliotheques-specialisees.paris.fr/ark:/73873/pf0000852422"", ""description"": ""Plan de Paris comprenant l'enceinte des fortifications. J. Andriveau-Goujon, éditeur, 1849""}",Rue De Constantine
77,,atlas_andriveaugoujon_1849,street,48.85355255502283,2.325507635935073,1848,1850,"{""title"": ""Plan de Paris comprenant l'enceinte des fortifications. J. Andriveau-Goujon, éditeur, 1849"", ""reference"": ""https://bibliotheques-specialisees.paris.fr/ark:/73873/pf0000852422"", ""description"": ""Plan de Paris comprenant l'enceinte des fortifications. J. Andriveau-Goujon, éditeur, 1849""}",Rue De La Planche
78,,atlas_andriveaugoujon_1849,street,48.85286051021602,2.375720225101064,1848,1850,"{""title"": ""Plan de Paris comprenant l'enceinte des fortifications. J. Andriveau-Goujon, éditeur, 1849"", ""reference"": ""https://bibliotheques-specialisees.paris.fr/ark:/73873/pf0000852422"", ""description"": ""Plan de Paris comprenant l'enceinte des fortifications. J. Andriveau-Goujon, éditeur, 1849""}",Cour De L'Homme
79,,atlas_andriveaugoujon_1849,street,48.85205104879781,2.38171595448528,1848,1850,"{""title"": ""Plan de Paris comprenant l'enceinte des fortifications. J. Andriveau-Goujon, éditeur, 1849"", ""reference"": ""https://bibliotheques-specialisees.paris.fr/ark:/73873/pf0000852422"", ""description"": ""Plan de Paris comprenant l'enceinte des fortifications. J. Andriveau-Goujon, éditeur, 1849""}",Rue Saint-Bernard
80,,atlas_andriveaugoujon_1849,street,48.85199835004114,2.3337102613345144,1848,1850,"{""title"": ""Plan de Paris comprenant l'enceinte des fortifications. J. Andriveau-Goujon, éditeur, 1849"", ""reference"": ""https://bibliotheques-specialisees.paris.fr/ark:/73873/pf0000852422"", ""description"": ""Plan de Paris comprenant l'enceinte des fortifications. J. Andriveau-Goujon, éditeur, 1849""}",Rue Des Canettes
81,,atlas_andriveaugoujon_1849,street,48.85401205360759,2.333403316188608,1848,1850,"{""title"": ""Plan de Paris comprenant l'enceinte des fortifications. J. Andriveau-Goujon, éditeur, 1849"", ""reference"": ""https://bibliotheques-specialisees.paris.fr/ark:/73873/pf0000852422"", ""description"": ""Plan de Paris comprenant l'enceinte des fortifications. J. Andriveau-Goujon, éditeur, 1849""}",Rue Place Saint-Germain Des Près
82,,atlas_andriveaugoujon_1849,street,48.85069961370148,2.3801464401332972,1848,1850,"{""title"": ""Plan de Paris comprenant l'enceinte des fortifications. J. Andriveau-Goujon, éditeur, 1849"", ""reference"": ""https://bibliotheques-specialisees.paris.fr/ark:/73873/pf0000852422"", ""description"": ""Plan de Paris comprenant l'enceinte des fortifications. J. Andriveau-Goujon, éditeur, 1849""}",Impasse De La Forge Royale
83,,atlas_andriveaugoujon_1849,street,48.88014250956314,2.350991138022008,1848,1850,"{""title"": ""Plan de Paris comprenant l'enceinte des fortifications. J. Andriveau-Goujon, éditeur, 1849"", ""reference"": ""https://bibliotheques-specialisees.paris.fr/ark:/73873/pf0000852422"", ""description"": ""Plan de Paris comprenant l'enceinte des fortifications. J. Andriveau-Goujon, éditeur, 1849""}",Rue De Jardins
84,,atlas_andriveaugoujon_1849,street,48.866785930891666,2.3321561985211456,1848,1850,"{""title"": ""Plan de Paris comprenant l'enceinte des fortifications. J. Andriveau-Goujon, éditeur, 1849"", ""reference"": ""https://bibliotheques-specialisees.paris.fr/ark:/73873/pf0000852422"", ""description"": ""Plan de Paris comprenant l'enceinte des fortifications. J. Andriveau-Goujon, éditeur, 1849""}",Place Du Marché Saint-Honoré
85,,atlas_andriveaugoujon_1849,street,48.85539615463641,2.346985860217316,1848,1850,"{""title"": ""Plan de Paris comprenant l'enceinte des fortifications. J. Andriveau-Goujon, éditeur, 1849"", ""reference"": ""https://bibliotheques-specialisees.paris.fr/ark:/73873/pf0000852422"", ""description"": ""Plan de Paris comprenant l'enceinte des fortifications. J. Andriveau-Goujon, éditeur, 1849""}",Rue Du Marché Aux Fleurs
86,,atlas_andriveaugoujon_1849,street,48.85177216744645,2.337855779092915,1848,1850,"{""title"": ""Plan de Paris comprenant l'enceinte des fortifications. J. Andriveau-Goujon, éditeur, 1849"", ""reference"": ""https://bibliotheques-specialisees.paris.fr/ark:/73873/pf0000852422"", ""description"": ""Plan de Paris comprenant l'enceinte des fortifications. J. Andriveau-Goujon, éditeur, 1849""}",Rue Des Qautre Vents
87,,atlas_andriveaugoujon_1849,street,48.85588803624598,2.3271512011906896,1848,1850,"{""title"": ""Plan de Paris comprenant l'enceinte des fortifications. J. Andriveau-Goujon, éditeur, 1849"", ""reference"": ""https://bibliotheques-specialisees.paris.fr/ark:/73873/pf0000852422"", ""description"": ""Plan de Paris comprenant l'enceinte des fortifications. J. Andriveau-Goujon, éditeur, 1849""}",Rue Saint-Thomas D'Aquin
88,,atlas_andriveaugoujon_1849,street,48.85343178558018,2.350706677354843,1848,1850,"{""title"": ""Plan de Paris comprenant l'enceinte des fortifications. J. Andriveau-Goujon, éditeur, 1849"", ""reference"": ""https://bibliotheques-specialisees.paris.fr/ark:/73873/pf0000852422"", ""description"": ""Plan de Paris comprenant l'enceinte des fortifications. J. Andriveau-Goujon, éditeur, 1849""}",Rue Massillon
89,,atlas_andriveaugoujon_1849,street,48.85220485693582,2.3652593348940854,1848,1850,"{""title"": ""Plan de Paris comprenant l'enceinte des fortifications. J. Andriveau-Goujon, éditeur, 1849"", ""reference"": ""https://bibliotheques-specialisees.paris.fr/ark:/73873/pf0000852422"", ""description"": ""Plan de Paris comprenant l'enceinte des fortifications. J. Andriveau-Goujon, éditeur, 1849""}",Rue De La Ceriseraie
90,,atlas_andriveaugoujon_1849,street,48.868176720557976,2.3506892577234475,1848,1850,"{""title"": ""Plan de Paris comprenant l'enceinte des fortifications. J. Andriveau-Goujon, éditeur, 1849"", ""reference"": ""https://bibliotheques-specialisees.paris.fr/ark:/73873/pf0000852422"", ""description"": ""Plan de Paris comprenant l'enceinte des fortifications. J. Andriveau-Goujon, éditeur, 1849""}",Impasse De La Grosse Tête
91,,atlas_andriveaugoujon_1849,street,48.853015180456325,2.3385982478634446,1848,1850,"{""title"": ""Plan de Paris comprenant l'enceinte des fortifications. J. Andriveau-Goujon, éditeur, 1849"", ""reference"": ""https://bibliotheques-specialisees.paris.fr/ark:/73873/pf0000852422"", ""description"": ""Plan de Paris comprenant l'enceinte des fortifications. J. Andriveau-Goujon, éditeur, 1849""}",Rue Des Fossés Saint-Germain Des Près
92,,atlas_andriveaugoujon_1849,street,48.858489135252334,2.3533551556059926,1848,1850,"{""title"": ""Plan de Paris comprenant l'enceinte des fortifications. J. Andriveau-Goujon, éditeur, 1849"", ""reference"": ""https://bibliotheques-specialisees.paris.fr/ark:/73873/pf0000852422"", ""description"": ""Plan de Paris comprenant l'enceinte des fortifications. J. Andriveau-Goujon, éditeur, 1849""}",Rue Bar-Du-Bec
93,,atlas_andriveaugoujon_1849,street,48.86000956800217,2.3409861166468433,1848,1850,"{""title"": ""Plan de Paris comprenant l'enceinte des fortifications. J. Andriveau-Goujon, éditeur, 1849"", ""reference"": ""https://bibliotheques-specialisees.paris.fr/ark:/73873/pf0000852422"", ""description"": ""Plan de Paris comprenant l'enceinte des fortifications. J. Andriveau-Goujon, éditeur, 1849""}",Rue Du Demi-Saint
94,,atlas_andriveaugoujon_1849,street,48.86843243690413,2.32492252795413,1848,1850,"{""title"": ""Plan de Paris comprenant l'enceinte des fortifications. J. Andriveau-Goujon, éditeur, 1849"", ""reference"": ""https://bibliotheques-specialisees.paris.fr/ark:/73873/pf0000852422"", ""description"": ""Plan de Paris comprenant l'enceinte des fortifications. J. Andriveau-Goujon, éditeur, 1849""}",Rue Richepanse
95,,atlas_andriveaugoujon_1849,street,48.88249945480245,2.329408319929342,1848,1850,"{""title"": ""Plan de Paris comprenant l'enceinte des fortifications. J. Andriveau-Goujon, éditeur, 1849"", ""reference"": ""https://bibliotheques-specialisees.paris.fr/ark:/73873/pf0000852422"", ""description"": ""Plan de Paris comprenant l'enceinte des fortifications. J. Andriveau-Goujon, éditeur, 1849""}",Rue Vintimille
96,,atlas_andriveaugoujon_1849,street,48.865048412073406,2.359932272866419,1848,1850,"{""title"": ""Plan de Paris comprenant l'enceinte des fortifications. J. Andriveau-Goujon, éditeur, 1849"", ""reference"": ""https://bibliotheques-specialisees.paris.fr/ark:/73873/pf0000852422"", ""description"": ""Plan de Paris comprenant l'enceinte des fortifications. J. Andriveau-Goujon, éditeur, 1849""}",Rue Du Temple
97,,atlas_andriveaugoujon_1849,street,48.87919222923376,2.335426750286972,1848,1850,"{""title"": ""Plan de Paris comprenant l'enceinte des fortifications. J. Andriveau-Goujon, éditeur, 1849"", ""reference"": ""https://bibliotheques-specialisees.paris.fr/ark:/73873/pf0000852422"", ""description"": ""Plan de Paris comprenant l'enceinte des fortifications. J. Andriveau-Goujon, éditeur, 1849""}",Rue Labruyère
98,,atlas_andriveaugoujon_1849,street,48.87570623856605,2.312800398281374,1848,1850,"{""title"": ""Plan de Paris comprenant l'enceinte des fortifications. J. Andriveau-Goujon, éditeur, 1849"", ""reference"": ""https://bibliotheques-specialisees.paris.fr/ark:/73873/pf0000852422"", ""description"": ""Plan de Paris comprenant l'enceinte des fortifications. J. Andriveau-Goujon, éditeur, 1849""}",Avenue De Plaisance
99,,atlas_andriveaugoujon_1849,street,48.86598077294681,2.331697766775956,1848,1850,"{""title"": ""Plan de Paris comprenant l'enceinte des fortifications. J. Andriveau-Goujon, éditeur, 1849"", ""reference"": ""https://bibliotheques-specialisees.paris.fr/ark:/73873/pf0000852422"", ""description"": ""Plan de Paris comprenant l'enceinte des fortifications. J. Andriveau-Goujon, éditeur, 1849""}",Rue Sainte-Hyacinthe
100,,atlas_andriveaugoujon_1849,street,48.84677059164905,2.341921924195197,1848,1850,"{""title"": ""Plan de Paris comprenant l'enceinte des fortifications. J. Andriveau-Goujon, éditeur, 1849"", ""reference"": ""https://bibliotheques-specialisees.paris.fr/ark:/73873/pf0000852422"", ""description"": ""Plan de Paris comprenant l'enceinte des fortifications. J. Andriveau-Goujon, éditeur, 1849""}",Rue Sainte-Hyacinthe
101,,atlas_andriveaugoujon_1849,street,48.86559522758055,2.2991738215361055,1848,1850,"{""title"": ""Plan de Paris comprenant l'enceinte des fortifications. J. Andriveau-Goujon, éditeur, 1849"", ""reference"": ""https://bibliotheques-specialisees.paris.fr/ark:/73873/pf0000852422"", ""description"": ""Plan de Paris comprenant l'enceinte des fortifications. J. Andriveau-Goujon, éditeur, 1849""}",Passage De La Pompe À Feu
102,,atlas_andriveaugoujon_1849,street,48.863547815779334,2.346223560988479,1848,1850,"{""title"": ""Plan de Paris comprenant l'enceinte des fortifications. J. Andriveau-Goujon, éditeur, 1849"", ""reference"": ""https://bibliotheques-specialisees.paris.fr/ark:/73873/pf0000852422"", ""description"": ""Plan de Paris comprenant l'enceinte des fortifications. J. Andriveau-Goujon, éditeur, 1849""}",Rue Comtesse D'Artois
103,,atlas_andriveaugoujon_1849,street,48.85381523166498,2.3368391701819045,1848,1850,"{""title"": ""Plan de Paris comprenant l'enceinte des fortifications. J. Andriveau-Goujon, éditeur, 1849"", ""reference"": ""https://bibliotheques-specialisees.paris.fr/ark:/73873/pf0000852422"", ""description"": ""Plan de Paris comprenant l'enceinte des fortifications. J. Andriveau-Goujon, éditeur, 1849""}",Rue De Bussy
104,,atlas_andriveaugoujon_1849,street,48.86073964212472,2.3522122657617777,1848,1850,"{""title"": ""Plan de Paris comprenant l'enceinte des fortifications. J. Andriveau-Goujon, éditeur, 1849"", ""reference"": ""https://bibliotheques-specialisees.paris.fr/ark:/73873/pf0000852422"", ""description"": ""Plan de Paris comprenant l'enceinte des fortifications. J. Andriveau-Goujon, éditeur, 1849""}",Impasse De La Corroierie
105,,atlas_andriveaugoujon_1849,street,48.84768286901708,2.3511394761095605,1848,1850,"{""title"": ""Plan de Paris comprenant l'enceinte des fortifications. J. Andriveau-Goujon, éditeur, 1849"", ""reference"": ""https://bibliotheques-specialisees.paris.fr/ark:/73873/pf0000852422"", ""description"": ""Plan de Paris comprenant l'enceinte des fortifications. J. Andriveau-Goujon, éditeur, 1849""}",Rue De Versailles
106,,atlas_andriveaugoujon_1849,street,48.85346945774273,2.361610123199214,1848,1850,"{""title"": ""Plan de Paris comprenant l'enceinte des fortifications. J. Andriveau-Goujon, éditeur, 1849"", ""reference"": ""https://bibliotheques-specialisees.paris.fr/ark:/73873/pf0000852422"", ""description"": ""Plan de Paris comprenant l'enceinte des fortifications. J. Andriveau-Goujon, éditeur, 1849""}",Rue Saint-Paul
107,,atlas_andriveaugoujon_1849,street,48.854445999513,2.346298645878462,1848,1850,"{""title"": ""Plan de Paris comprenant l'enceinte des fortifications. J. Andriveau-Goujon, éditeur, 1849"", ""reference"": ""https://bibliotheques-specialisees.paris.fr/ark:/73873/pf0000852422"", ""description"": ""Plan de Paris comprenant l'enceinte des fortifications. J. Andriveau-Goujon, éditeur, 1849""}",Rue De La Calandre
108,,atlas_andriveaugoujon_1849,street,48.85985669845858,2.2920450420516527,1848,1850,"{""title"": ""Plan de Paris comprenant l'enceinte des fortifications. J. Andriveau-Goujon, éditeur, 1849"", ""reference"": ""https://bibliotheques-specialisees.paris.fr/ark:/73873/pf0000852422"", ""description"": ""Plan de Paris comprenant l'enceinte des fortifications. J. Andriveau-Goujon, éditeur, 1849""}",Pont D'Iéna
109,,atlas_andriveaugoujon_1849,street,48.86285501597595,2.345429635927625,1848,1850,"{""title"": ""Plan de Paris comprenant l'enceinte des fortifications. J. Andriveau-Goujon, éditeur, 1849"", ""reference"": ""https://bibliotheques-specialisees.paris.fr/ark:/73873/pf0000852422"", ""description"": ""Plan de Paris comprenant l'enceinte des fortifications. J. Andriveau-Goujon, éditeur, 1849""}",Passage Des Chartreux
110,,atlas_andriveaugoujon_1849,street,48.85681646321057,2.366363149128701,1848,1850,"{""title"": ""Plan de Paris comprenant l'enceinte des fortifications. J. Andriveau-Goujon, éditeur, 1849"", ""reference"": ""https://bibliotheques-specialisees.paris.fr/ark:/73873/pf0000852422"", ""description"": ""Plan de Paris comprenant l'enceinte des fortifications. J. Andriveau-Goujon, éditeur, 1849""}",Impasse Des Hospitalières
111,,atlas_andriveaugoujon_1849,street,48.85039295393318,2.3500411410451503,1848,1850,"{""title"": ""Plan de Paris comprenant l'enceinte des fortifications. J. Andriveau-Goujon, éditeur, 1849"", ""reference"": ""https://bibliotheques-specialisees.paris.fr/ark:/73873/pf0000852422"", ""description"": ""Plan de Paris comprenant l'enceinte des fortifications. J. Andriveau-Goujon, éditeur, 1849""}",Rue De Bièvre
112,,atlas_andriveaugoujon_1849,street,48.83220246816094,2.3528842108012187,1848,1850,"{""title"": ""Plan de Paris comprenant l'enceinte des fortifications. J. Andriveau-Goujon, éditeur, 1849"", ""reference"": ""https://bibliotheques-specialisees.paris.fr/ark:/73873/pf0000852422"", ""description"": ""Plan de Paris comprenant l'enceinte des fortifications. J. Andriveau-Goujon, éditeur, 1849""}",Rue Du Petit Gentilly
113,,atlas_andriveaugoujon_1849,street,48.84850665337354,2.371776685791902,1848,1850,"{""title"": ""Plan de Paris comprenant l'enceinte des fortifications. J. Andriveau-Goujon, éditeur, 1849"", ""reference"": ""https://bibliotheques-specialisees.paris.fr/ark:/73873/pf0000852422"", ""description"": ""Plan de Paris comprenant l'enceinte des fortifications. J. Andriveau-Goujon, éditeur, 1849""}",Rue Moreau
114,,atlas_andriveaugoujon_1849,street,48.85587963401742,2.352820871610924,1848,1850,"{""title"": ""Plan de Paris comprenant l'enceinte des fortifications. J. Andriveau-Goujon, éditeur, 1849"", ""reference"": ""https://bibliotheques-specialisees.paris.fr/ark:/73873/pf0000852422"", ""description"": ""Plan de Paris comprenant l'enceinte des fortifications. J. Andriveau-Goujon, éditeur, 1849""}",Rue De La Levrette
115,,atlas_andriveaugoujon_1849,street,48.868624494613776,2.3443037781660707,1848,1850,"{""title"": ""Plan de Paris comprenant l'enceinte des fortifications. J. Andriveau-Goujon, éditeur, 1849"", ""reference"": ""https://bibliotheques-specialisees.paris.fr/ark:/73873/pf0000852422"", ""description"": ""Plan de Paris comprenant l'enceinte des fortifications. J. Andriveau-Goujon, éditeur, 1849""}",Rue Saint-Joseph
116,,atlas_andriveaugoujon_1849,street,48.84451135665391,2.3477944588716686,1848,1850,"{""title"": ""Plan de Paris comprenant l'enceinte des fortifications. J. Andriveau-Goujon, éditeur, 1849"", ""reference"": ""https://bibliotheques-specialisees.paris.fr/ark:/73873/pf0000852422"", ""description"": ""Plan de Paris comprenant l'enceinte des fortifications. J. Andriveau-Goujon, éditeur, 1849""}",Place De Fourey
117,,atlas_andriveaugoujon_1849,street,48.848700232483445,2.345709974204917,1848,1850,"{""title"": ""Plan de Paris comprenant l'enceinte des fortifications. J. Andriveau-Goujon, éditeur, 1849"", ""reference"": ""https://bibliotheques-specialisees.paris.fr/ark:/73873/pf0000852422"", ""description"": ""Plan de Paris comprenant l'enceinte des fortifications. J. Andriveau-Goujon, éditeur, 1849""}",Rue Fromentelle
118,,atlas_andriveaugoujon_1849,street,48.868552876274634,2.3528567139144516,1848,1850,"{""title"": ""Plan de Paris comprenant l'enceinte des fortifications. J. Andriveau-Goujon, éditeur, 1849"", ""reference"": ""https://bibliotheques-specialisees.paris.fr/ark:/73873/pf0000852422"", ""description"": ""Plan de Paris comprenant l'enceinte des fortifications. J. Andriveau-Goujon, éditeur, 1849""}",Passage Lemoine
119,,atlas_andriveaugoujon_1849,street,48.855173864772375,2.3790461289843146,1848,1850,"{""title"": ""Plan de Paris comprenant l'enceinte des fortifications. J. Andriveau-Goujon, éditeur, 1849"", ""reference"": ""https://bibliotheques-specialisees.paris.fr/ark:/73873/pf0000852422"", ""description"": ""Plan de Paris comprenant l'enceinte des fortifications. J. Andriveau-Goujon, éditeur, 1849""}",Rue Basfroi
120,,atlas_andriveaugoujon_1849,street,48.84178445673391,2.3726807009374933,1848,1850,"{""title"": ""Plan de Paris comprenant l'enceinte des fortifications. J. Andriveau-Goujon, éditeur, 1849"", ""reference"": ""https://bibliotheques-specialisees.paris.fr/ark:/73873/pf0000852422"", ""description"": ""Plan de Paris comprenant l'enceinte des fortifications. J. Andriveau-Goujon, éditeur, 1849""}",Quai De La Rapée
121,,atlas_andriveaugoujon_1849,street,48.848466403409255,2.354656933012516,1848,1850,"{""title"": ""Plan de Paris comprenant l'enceinte des fortifications. J. Andriveau-Goujon, éditeur, 1849"", ""reference"": ""https://bibliotheques-specialisees.paris.fr/ark:/73873/pf0000852422"", ""description"": ""Plan de Paris comprenant l'enceinte des fortifications. J. Andriveau-Goujon, éditeur, 1849""}",Rue Des Fossés Saint-Bernard
122,,atlas_andriveaugoujon_1849,street,48.85056950330257,2.3635321850700355,1848,1850,"{""title"": ""Plan de Paris comprenant l'enceinte des fortifications. J. Andriveau-Goujon, éditeur, 1849"", ""reference"": ""https://bibliotheques-specialisees.paris.fr/ark:/73873/pf0000852422"", ""description"": ""Plan de Paris comprenant l'enceinte des fortifications. J. Andriveau-Goujon, éditeur, 1849""}",Rue Sully
123,,atlas_andriveaugoujon_1849,street,48.85282218977079,2.3391389198949786,1848,1850,"{""title"": ""Plan de Paris comprenant l'enceinte des fortifications. J. Andriveau-Goujon, éditeur, 1849"", ""reference"": ""https://bibliotheques-specialisees.paris.fr/ark:/73873/pf0000852422"", ""description"": ""Plan de Paris comprenant l'enceinte des fortifications. J. Andriveau-Goujon, éditeur, 1849""}",Passage De La Cour Du Commerce
124,,atlas_andriveaugoujon_1849,street,48.8654027551693,2.3718224129491117,1848,1850,"{""title"": ""Plan de Paris comprenant l'enceinte des fortifications. J. Andriveau-Goujon, éditeur, 1849"", ""reference"": ""https://bibliotheques-specialisees.paris.fr/ark:/73873/pf0000852422"", ""description"": ""Plan de Paris comprenant l'enceinte des fortifications. J. Andriveau-Goujon, éditeur, 1849""}",Rue Neuve D'Angoulême
125,,atlas_andriveaugoujon_1849,street,48.87636966580679,2.3192926647697774,1848,1850,"{""title"": ""Plan de Paris comprenant l'enceinte des fortifications. J. Andriveau-Goujon, éditeur, 1849"", ""reference"": ""https://bibliotheques-specialisees.paris.fr/ark:/73873/pf0000852422"", ""description"": ""Plan de Paris comprenant l'enceinte des fortifications. J. Andriveau-Goujon, éditeur, 1849""}",Petite Rue De La Voirie
126,,atlas_andriveaugoujon_1849,street,48.87579070810806,2.324065337035904,1848,1850,"{""title"": ""Plan de Paris comprenant l'enceinte des fortifications. J. Andriveau-Goujon, éditeur, 1849"", ""reference"": ""https://bibliotheques-specialisees.paris.fr/ark:/73873/pf0000852422"", ""description"": ""Plan de Paris comprenant l'enceinte des fortifications. J. Andriveau-Goujon, éditeur, 1849""}",Impasse D'Argenteuil
127,,atlas_andriveaugoujon_1849,street,48.85685454081526,2.3600301187159682,1848,1850,"{""title"": ""Plan de Paris comprenant l'enceinte des fortifications. J. Andriveau-Goujon, éditeur, 1849"", ""reference"": ""https://bibliotheques-specialisees.paris.fr/ark:/73873/pf0000852422"", ""description"": ""Plan de Paris comprenant l'enceinte des fortifications. J. Andriveau-Goujon, éditeur, 1849""}",Impasse Coquerelle
128,,atlas_andriveaugoujon_1849,street,48.857458915207616,2.3562623008849,1848,1850,"{""title"": ""Plan de Paris comprenant l'enceinte des fortifications. J. Andriveau-Goujon, éditeur, 1849"", ""reference"": ""https://bibliotheques-specialisees.paris.fr/ark:/73873/pf0000852422"", ""description"": ""Plan de Paris comprenant l'enceinte des fortifications. J. Andriveau-Goujon, éditeur, 1849""}",Rue Bourtiboury
129,,atlas_andriveaugoujon_1849,street,48.836189127972844,2.3502078758206357,1848,1850,"{""title"": ""Plan de Paris comprenant l'enceinte des fortifications. J. Andriveau-Goujon, éditeur, 1849"", ""reference"": ""https://bibliotheques-specialisees.paris.fr/ark:/73873/pf0000852422"", ""description"": ""Plan de Paris comprenant l'enceinte des fortifications. J. Andriveau-Goujon, éditeur, 1849""}",Ruelle Des Gobelins
130,,atlas_andriveaugoujon_1849,street,48.86245376088214,2.3421267753999357,1848,1850,"{""title"": ""Plan de Paris comprenant l'enceinte des fortifications. J. Andriveau-Goujon, éditeur, 1849"", ""reference"": ""https://bibliotheques-specialisees.paris.fr/ark:/73873/pf0000852422"", ""description"": ""Plan de Paris comprenant l'enceinte des fortifications. J. Andriveau-Goujon, éditeur, 1849""}",Rue Babille
131,,atlas_andriveaugoujon_1849,street,48.84776670877368,2.313742518207861,1848,1850,"{""title"": ""Plan de Paris comprenant l'enceinte des fortifications. J. Andriveau-Goujon, éditeur, 1849"", ""reference"": ""https://bibliotheques-specialisees.paris.fr/ark:/73873/pf0000852422"", ""description"": ""Plan de Paris comprenant l'enceinte des fortifications. J. Andriveau-Goujon, éditeur, 1849""}",Petite Rue Des Accacias
132,,atlas_andriveaugoujon_1849,street,48.871908729519916,2.3676368237359577,1848,1850,"{""title"": ""Plan de Paris comprenant l'enceinte des fortifications. J. Andriveau-Goujon, éditeur, 1849"", ""reference"": ""https://bibliotheques-specialisees.paris.fr/ark:/73873/pf0000852422"", ""description"": ""Plan de Paris comprenant l'enceinte des fortifications. J. Andriveau-Goujon, éditeur, 1849""}",Rue Bichat
133,,atlas_andriveaugoujon_1849,street,48.86932741724299,2.3312434165785034,1848,1850,"{""title"": ""Plan de Paris comprenant l'enceinte des fortifications. J. Andriveau-Goujon, éditeur, 1849"", ""reference"": ""https://bibliotheques-specialisees.paris.fr/ark:/73873/pf0000852422"", ""description"": ""Plan de Paris comprenant l'enceinte des fortifications. J. Andriveau-Goujon, éditeur, 1849""}",Rue De La Paix
134,,atlas_andriveaugoujon_1849,street,48.85596891349433,2.3712936665693802,1848,1850,"{""title"": ""Plan de Paris comprenant l'enceinte des fortifications. J. Andriveau-Goujon, éditeur, 1849"", ""reference"": ""https://bibliotheques-specialisees.paris.fr/ark:/73873/pf0000852422"", ""description"": ""Plan de Paris comprenant l'enceinte des fortifications. J. Andriveau-Goujon, éditeur, 1849""}",Rue Saint-Sabin
135,,atlas_andriveaugoujon_1849,street,48.862773536680045,2.3610042662422788,1848,1850,"{""title"": ""Plan de Paris comprenant l'enceinte des fortifications. J. Andriveau-Goujon, éditeur, 1849"", ""reference"": ""https://bibliotheques-specialisees.paris.fr/ark:/73873/pf0000852422"", ""description"": ""Plan de Paris comprenant l'enceinte des fortifications. J. Andriveau-Goujon, éditeur, 1849""}",Rue De Beauce
136,,atlas_andriveaugoujon_1849,street,48.85024092931407,2.3317424851424855,1848,1850,"{""title"": ""Plan de Paris comprenant l'enceinte des fortifications. J. Andriveau-Goujon, éditeur, 1849"", ""reference"": ""https://bibliotheques-specialisees.paris.fr/ark:/73873/pf0000852422"", ""description"": ""Plan de Paris comprenant l'enceinte des fortifications. J. Andriveau-Goujon, éditeur, 1849""}",Rue Mézière
137,,atlas_andriveaugoujon_1849,street,48.84896764757403,2.318441721201281,1848,1850,"{""title"": ""Plan de Paris comprenant l'enceinte des fortifications. J. Andriveau-Goujon, éditeur, 1849"", ""reference"": ""https://bibliotheques-specialisees.paris.fr/ark:/73873/pf0000852422"", ""description"": ""Plan de Paris comprenant l'enceinte des fortifications. J. Andriveau-Goujon, éditeur, 1849""}",Rue Bousselet
138,,atlas_andriveaugoujon_1849,street,48.857286062550756,2.3061211526073833,1848,1850,"{""title"": ""Plan de Paris comprenant l'enceinte des fortifications. J. Andriveau-Goujon, éditeur, 1849"", ""reference"": ""https://bibliotheques-specialisees.paris.fr/ark:/73873/pf0000852422"", ""description"": ""Plan de Paris comprenant l'enceinte des fortifications. J. Andriveau-Goujon, éditeur, 1849""}",Rue De L'Église
139,,atlas_andriveaugoujon_1849,street,48.87913679553296,2.3651427898648927,1848,1850,"{""title"": ""Plan de Paris comprenant l'enceinte des fortifications. J. Andriveau-Goujon, éditeur, 1849"", ""reference"": ""https://bibliotheques-specialisees.paris.fr/ark:/73873/pf0000852422"", ""description"": ""Plan de Paris comprenant l'enceinte des fortifications. J. Andriveau-Goujon, éditeur, 1849""}",Passage Feuillet
140,,atlas_andriveaugoujon_1849,street,48.87651461357995,2.3290527234911846,1848,1850,"{""title"": ""Plan de Paris comprenant l'enceinte des fortifications. J. Andriveau-Goujon, éditeur, 1849"", ""reference"": ""https://bibliotheques-specialisees.paris.fr/ark:/73873/pf0000852422"", ""description"": ""Plan de Paris comprenant l'enceinte des fortifications. J. Andriveau-Goujon, éditeur, 1849""}",Cité De Londres
141,,atlas_andriveaugoujon_1849,street,48.87315731087796,2.339085864655945,1848,1850,"{""title"": ""Plan de Paris comprenant l'enceinte des fortifications. J. Andriveau-Goujon, éditeur, 1849"", ""reference"": ""https://bibliotheques-specialisees.paris.fr/ark:/73873/pf0000852422"", ""description"": ""Plan de Paris comprenant l'enceinte des fortifications. J. Andriveau-Goujon, éditeur, 1849""}",Rue Pinon
142,,atlas_andriveaugoujon_1849,street,48.85140517581677,2.347505827039627,1848,1850,"{""title"": ""Plan de Paris comprenant l'enceinte des fortifications. J. Andriveau-Goujon, éditeur, 1849"", ""reference"": ""https://bibliotheques-specialisees.paris.fr/ark:/73873/pf0000852422"", ""description"": ""Plan de Paris comprenant l'enceinte des fortifications. J. Andriveau-Goujon, éditeur, 1849""}",Rue Galande
143,,atlas_andriveaugoujon_1849,street,48.84174547125794,2.3669907712173464,1848,1850,"{""title"": ""Plan de Paris comprenant l'enceinte des fortifications. J. Andriveau-Goujon, éditeur, 1849"", ""reference"": ""https://bibliotheques-specialisees.paris.fr/ark:/73873/pf0000852422"", ""description"": ""Plan de Paris comprenant l'enceinte des fortifications. J. Andriveau-Goujon, éditeur, 1849""}",Rue Jouffroy
144,,atlas_andriveaugoujon_1849,street,48.87102954758271,2.376319836018254,1848,1850,"{""title"": ""Plan de Paris comprenant l'enceinte des fortifications. J. Andriveau-Goujon, éditeur, 1849"", ""reference"": ""https://bibliotheques-specialisees.paris.fr/ark:/73873/pf0000852422"", ""description"": ""Plan de Paris comprenant l'enceinte des fortifications. J. Andriveau-Goujon, éditeur, 1849""}",Passage D'Isly
145,,atlas_andriveaugoujon_1849,street,48.86068042198758,2.343614090377113,1848,1850,"{""title"": ""Plan de Paris comprenant l'enceinte des fortifications. J. Andriveau-Goujon, éditeur, 1849"", ""reference"": ""https://bibliotheques-specialisees.paris.fr/ark:/73873/pf0000852422"", ""description"": ""Plan de Paris comprenant l'enceinte des fortifications. J. Andriveau-Goujon, éditeur, 1849""}",Rue Du Roule
146,,atlas_andriveaugoujon_1849,street,48.83906052992337,2.338507254797916,1848,1850,"{""title"": ""Plan de Paris comprenant l'enceinte des fortifications. J. Andriveau-Goujon, éditeur, 1849"", ""reference"": ""https://bibliotheques-specialisees.paris.fr/ark:/73873/pf0000852422"", ""description"": ""Plan de Paris comprenant l'enceinte des fortifications. J. Andriveau-Goujon, éditeur, 1849""}",Rue Du Port Royal
147,,atlas_andriveaugoujon_1849,street,48.86271297156644,2.2915577690575346,1848,1850,"{""title"": ""Plan de Paris comprenant l'enceinte des fortifications. J. Andriveau-Goujon, éditeur, 1849"", ""reference"": ""https://bibliotheques-specialisees.paris.fr/ark:/73873/pf0000852422"", ""description"": ""Plan de Paris comprenant l'enceinte des fortifications. J. Andriveau-Goujon, éditeur, 1849""}",Rue Des Batailles
148,,atlas_andriveaugoujon_1849,street,48.85315716519631,2.3457729451020404,1848,1850,"{""title"": ""Plan de Paris comprenant l'enceinte des fortifications. J. Andriveau-Goujon, éditeur, 1849"", ""reference"": ""https://bibliotheques-specialisees.paris.fr/ark:/73873/pf0000852422"", ""description"": ""Plan de Paris comprenant l'enceinte des fortifications. J. Andriveau-Goujon, éditeur, 1849""}",Rue Des Trois Chandeliers
149,,atlas_andriveaugoujon_1849,street,48.84561866029622,2.346896254707693,1848,1850,"{""title"": ""Plan de Paris comprenant l'enceinte des fortifications. J. Andriveau-Goujon, éditeur, 1849"", ""reference"": ""https://bibliotheques-specialisees.paris.fr/ark:/73873/pf0000852422"", ""description"": ""Plan de Paris comprenant l'enceinte des fortifications. J. Andriveau-Goujon, éditeur, 1849""}",Rue Clodilte
150,,atlas_andriveaugoujon_1849,street,48.870402686335886,2.340861337433382,1848,1850,"{""title"": ""Plan de Paris comprenant l'enceinte des fortifications. J. Andriveau-Goujon, éditeur, 1849"", ""reference"": ""https://bibliotheques-specialisees.paris.fr/ark:/73873/pf0000852422"", ""description"": ""Plan de Paris comprenant l'enceinte des fortifications. J. Andriveau-Goujon, éditeur, 1849""}",Rue Saint-Marc
151,,atlas_andriveaugoujon_1849,street,48.87175384807793,2.3299817075973275,1848,1850,"{""title"": ""Plan de Paris comprenant l'enceinte des fortifications. J. Andriveau-Goujon, éditeur, 1849"", ""reference"": ""https://bibliotheques-specialisees.paris.fr/ark:/73873/pf0000852422"", ""description"": ""Plan de Paris comprenant l'enceinte des fortifications. J. Andriveau-Goujon, éditeur, 1849""}",Impasse Cendrier
152,,atlas_andriveaugoujon_1849,street,48.85499480729935,2.3680923639813685,1848,1850,"{""title"": ""Plan de Paris comprenant l'enceinte des fortifications. J. Andriveau-Goujon, éditeur, 1849"", ""reference"": ""https://bibliotheques-specialisees.paris.fr/ark:/73873/pf0000852422"", ""description"": ""Plan de Paris comprenant l'enceinte des fortifications. J. Andriveau-Goujon, éditeur, 1849""}",Impasse Jean Beau Sire
153,,atlas_andriveaugoujon_1849,street,48.86587091153122,2.3413887170357106,1848,1850,"{""title"": ""Plan de Paris comprenant l'enceinte des fortifications. J. Andriveau-Goujon, éditeur, 1849"", ""reference"": ""https://bibliotheques-specialisees.paris.fr/ark:/73873/pf0000852422"", ""description"": ""Plan de Paris comprenant l'enceinte des fortifications. J. Andriveau-Goujon, éditeur, 1849""}",Place Des Victoires
154,,atlas_andriveaugoujon_1849,street,48.84924846249183,2.3094295774633182,1848,1850,"{""title"": ""Plan de Paris comprenant l'enceinte des fortifications. J. Andriveau-Goujon, éditeur, 1849"", ""reference"": ""https://bibliotheques-specialisees.paris.fr/ark:/73873/pf0000852422"", ""description"": ""Plan de Paris comprenant l'enceinte des fortifications. J. Andriveau-Goujon, éditeur, 1849""}",Impasse Saxe
155,,atlas_andriveaugoujon_1849,street,48.865443541126346,2.3425286901184768,1848,1850,"{""title"": ""Plan de Paris comprenant l'enceinte des fortifications. J. Andriveau-Goujon, éditeur, 1849"", ""reference"": ""https://bibliotheques-specialisees.paris.fr/ark:/73873/pf0000852422"", ""description"": ""Plan de Paris comprenant l'enceinte des fortifications. J. Andriveau-Goujon, éditeur, 1849""}",Rue Des Vieux Augustins
156,,atlas_andriveaugoujon_1849,street,48.86446259632652,2.3103534685644194,1848,1850,"{""title"": ""Plan de Paris comprenant l'enceinte des fortifications. J. Andriveau-Goujon, éditeur, 1849"", ""reference"": ""https://bibliotheques-specialisees.paris.fr/ark:/73873/pf0000852422"", ""description"": ""Plan de Paris comprenant l'enceinte des fortifications. J. Andriveau-Goujon, éditeur, 1849""}",Quai De La Conférence
157,,atlas_andriveaugoujon_1849,street,48.858393377123534,2.3657943367869705,1848,1850,"{""title"": ""Plan de Paris comprenant l'enceinte des fortifications. J. Andriveau-Goujon, éditeur, 1849"", ""reference"": ""https://bibliotheques-specialisees.paris.fr/ark:/73873/pf0000852422"", ""description"": ""Plan de Paris comprenant l'enceinte des fortifications. J. Andriveau-Goujon, éditeur, 1849""}",Impasse Saint-Pierre
158,,atlas_andriveaugoujon_1849,street,48.853620520606576,2.334101376344044,1848,1850,"{""title"": ""Plan de Paris comprenant l'enceinte des fortifications. J. Andriveau-Goujon, éditeur, 1849"", ""reference"": ""https://bibliotheques-specialisees.paris.fr/ark:/73873/pf0000852422"", ""description"": ""Plan de Paris comprenant l'enceinte des fortifications. J. Andriveau-Goujon, éditeur, 1849""}",Rue D'Erfurth
159,,atlas_andriveaugoujon_1849,street,48.863263929667355,2.3510581998215976,1848,1850,"{""title"": ""Plan de Paris comprenant l'enceinte des fortifications. J. Andriveau-Goujon, éditeur, 1849"", ""reference"": ""https://bibliotheques-specialisees.paris.fr/ark:/73873/pf0000852422"", ""description"": ""Plan de Paris comprenant l'enceinte des fortifications. J. Andriveau-Goujon, éditeur, 1849""}",Rue Aux Ours
160,,atlas_andriveaugoujon_1849,street,48.866602528860874,2.324393352103597,1848,1850,"{""title"": ""Plan de Paris comprenant l'enceinte des fortifications. J. Andriveau-Goujon, éditeur, 1849"", ""reference"": ""https://bibliotheques-specialisees.paris.fr/ark:/73873/pf0000852422"", ""description"": ""Plan de Paris comprenant l'enceinte des fortifications. J. Andriveau-Goujon, éditeur, 1849""}",Rue Mondoui
161,,atlas_andriveaugoujon_1849,street,48.85234264254853,2.3145494040626815,1848,1850,"{""title"": ""Plan de Paris comprenant l'enceinte des fortifications. J. Andriveau-Goujon, éditeur, 1849"", ""reference"": ""https://bibliotheques-specialisees.paris.fr/ark:/73873/pf0000852422"", ""description"": ""Plan de Paris comprenant l'enceinte des fortifications. J. Andriveau-Goujon, éditeur, 1849""}",Boulevard Des Invalides
162,,atlas_andriveaugoujon_1849,street,48.85561154529381,2.3097591977999783,1848,1850,"{""title"": ""Plan de Paris comprenant l'enceinte des fortifications. J. Andriveau-Goujon, éditeur, 1849"", ""reference"": ""https://bibliotheques-specialisees.paris.fr/ark:/73873/pf0000852422"", ""description"": ""Plan de Paris comprenant l'enceinte des fortifications. J. Andriveau-Goujon, éditeur, 1849""}",Boulevard Des Invalides
163,,atlas_andriveaugoujon_1849,street,48.880956874391735,2.3384268543473214,1848,1850,"{""title"": ""Plan de Paris comprenant l'enceinte des fortifications. J. Andriveau-Goujon, éditeur, 1849"", ""reference"": ""https://bibliotheques-specialisees.paris.fr/ark:/73873/pf0000852422"", ""description"": ""Plan de Paris comprenant l'enceinte des fortifications. J. Andriveau-Goujon, éditeur, 1849""}",Rue Laval
164,,atlas_andriveaugoujon_1849,street,48.85324419581617,2.3378293221672286,1848,1850,"{""title"": ""Plan de Paris comprenant l'enceinte des fortifications. J. Andriveau-Goujon, éditeur, 1849"", ""reference"": ""https://bibliotheques-specialisees.paris.fr/ark:/73873/pf0000852422"", ""description"": ""Plan de Paris comprenant l'enceinte des fortifications. J. Andriveau-Goujon, éditeur, 1849""}",Rue Grégoire De Tours
165,,atlas_andriveaugoujon_1849,street,48.867191039878186,2.3349772439377494,1848,1850,"{""title"": ""Plan de Paris comprenant l'enceinte des fortifications. J. Andriveau-Goujon, éditeur, 1849"", ""reference"": ""https://bibliotheques-specialisees.paris.fr/ark:/73873/pf0000852422"", ""description"": ""Plan de Paris comprenant l'enceinte des fortifications. J. Andriveau-Goujon, éditeur, 1849""}",Rue Neuve Des Petits Champs
166,,atlas_andriveaugoujon_1849,street,48.871947422838694,2.344039355936381,1848,1850,"{""title"": ""Plan de Paris comprenant l'enceinte des fortifications. J. Andriveau-Goujon, éditeur, 1849"", ""reference"": ""https://bibliotheques-specialisees.paris.fr/ark:/73873/pf0000852422"", ""description"": ""Plan de Paris comprenant l'enceinte des fortifications. J. Andriveau-Goujon, éditeur, 1849""}",Cité Bergère
167,,atlas_andriveaugoujon_1849,street,48.85232439623057,2.346971398177266,1848,1850,"{""title"": ""Plan de Paris comprenant l'enceinte des fortifications. J. Andriveau-Goujon, éditeur, 1849"", ""reference"": ""https://bibliotheques-specialisees.paris.fr/ark:/73873/pf0000852422"", ""description"": ""Plan de Paris comprenant l'enceinte des fortifications. J. Andriveau-Goujon, éditeur, 1849""}",Rue Saint-Julien Le Pauvre
168,,atlas_andriveaugoujon_1849,street,48.85175958484918,2.3616057472394743,1848,1850,"{""title"": ""Plan de Paris comprenant l'enceinte des fortifications. J. Andriveau-Goujon, éditeur, 1849"", ""reference"": ""https://bibliotheques-specialisees.paris.fr/ark:/73873/pf0000852422"", ""description"": ""Plan de Paris comprenant l'enceinte des fortifications. J. Andriveau-Goujon, éditeur, 1849""}",Quai Des Célestins
169,,atlas_andriveaugoujon_1849,street,48.85177524204519,2.3564343153055893,1848,1850,"{""title"": ""Plan de Paris comprenant l'enceinte des fortifications. J. Andriveau-Goujon, éditeur, 1849"", ""reference"": ""https://bibliotheques-specialisees.paris.fr/ark:/73873/pf0000852422"", ""description"": ""Plan de Paris comprenant l'enceinte des fortifications. J. Andriveau-Goujon, éditeur, 1849""}",Rue Des Deux Ponts
170,,atlas_andriveaugoujon_1849,street,48.86349129507139,2.310381589166053,1848,1850,"{""title"": ""Plan de Paris comprenant l'enceinte des fortifications. J. Andriveau-Goujon, éditeur, 1849"", ""reference"": ""https://bibliotheques-specialisees.paris.fr/ark:/73873/pf0000852422"", ""description"": ""Plan de Paris comprenant l'enceinte des fortifications. J. Andriveau-Goujon, éditeur, 1849""}",Pont Des Invalides
171,,atlas_andriveaugoujon_1849,street,48.87125157473463,2.3094209366298646,1848,1850,"{""title"": ""Plan de Paris comprenant l'enceinte des fortifications. J. Andriveau-Goujon, éditeur, 1849"", ""reference"": ""https://bibliotheques-specialisees.paris.fr/ark:/73873/pf0000852422"", ""description"": ""Plan de Paris comprenant l'enceinte des fortifications. J. Andriveau-Goujon, éditeur, 1849""}",Rue Du Colisée
172,,atlas_andriveaugoujon_1849,street,48.86456476155603,2.3569134710607202,1848,1850,"{""title"": ""Plan de Paris comprenant l'enceinte des fortifications. J. Andriveau-Goujon, éditeur, 1849"", ""reference"": ""https://bibliotheques-specialisees.paris.fr/ark:/73873/pf0000852422"", ""description"": ""Plan de Paris comprenant l'enceinte des fortifications. J. Andriveau-Goujon, éditeur, 1849""}",Passage Des Puits De Rome
173,,atlas_andriveaugoujon_1849,street,48.87863575876994,2.317866087830263,1848,1850,"{""title"": ""Plan de Paris comprenant l'enceinte des fortifications. J. Andriveau-Goujon, éditeur, 1849"", ""reference"": ""https://bibliotheques-specialisees.paris.fr/ark:/73873/pf0000852422"", ""description"": ""Plan de Paris comprenant l'enceinte des fortifications. J. Andriveau-Goujon, éditeur, 1849""}",Rue Malesherbe
174,,atlas_andriveaugoujon_1849,street,48.85298961668886,2.352652338918396,1848,1850,"{""title"": ""Plan de Paris comprenant l'enceinte des fortifications. J. Andriveau-Goujon, éditeur, 1849"", ""reference"": ""https://bibliotheques-specialisees.paris.fr/ark:/73873/pf0000852422"", ""description"": ""Plan de Paris comprenant l'enceinte des fortifications. J. Andriveau-Goujon, éditeur, 1849""}",Pont De La Cité
175,,atlas_andriveaugoujon_1849,street,48.8483485197957,2.3407099652481183,1848,1850,"{""title"": ""Plan de Paris comprenant l'enceinte des fortifications. J. Andriveau-Goujon, éditeur, 1849"", ""reference"": ""https://bibliotheques-specialisees.paris.fr/ark:/73873/pf0000852422"", ""description"": ""Plan de Paris comprenant l'enceinte des fortifications. J. Andriveau-Goujon, éditeur, 1849""}",Rue Des Francs Bourgeois
176,,atlas_andriveaugoujon_1849,street,48.87612375055034,2.3202172911046564,1848,1850,"{""title"": ""Plan de Paris comprenant l'enceinte des fortifications. J. Andriveau-Goujon, éditeur, 1849"", ""reference"": ""https://bibliotheques-specialisees.paris.fr/ark:/73873/pf0000852422"", ""description"": ""Plan de Paris comprenant l'enceinte des fortifications. J. Andriveau-Goujon, éditeur, 1849""}",Rue De La Voirie
177,,atlas_andriveaugoujon_1849,street,48.83716346041353,2.352020135673288,1848,1850,"{""title"": ""Plan de Paris comprenant l'enceinte des fortifications. J. Andriveau-Goujon, éditeur, 1849"", ""reference"": ""https://bibliotheques-specialisees.paris.fr/ark:/73873/pf0000852422"", ""description"": ""Plan de Paris comprenant l'enceinte des fortifications. J. Andriveau-Goujon, éditeur, 1849""}",Rue Pierre Lombard
178,,atlas_andriveaugoujon_1849,street,48.87349938060042,2.356459853373846,1848,1850,"{""title"": ""Plan de Paris comprenant l'enceinte des fortifications. J. Andriveau-Goujon, éditeur, 1849"", ""reference"": ""https://bibliotheques-specialisees.paris.fr/ark:/73873/pf0000852422"", ""description"": ""Plan de Paris comprenant l'enceinte des fortifications. J. Andriveau-Goujon, éditeur, 1849""}",Impasse De La Fidélité
179,,atlas_andriveaugoujon_1849,street,48.857474177983,2.358852704759283,1848,1850,"{""title"": ""Plan de Paris comprenant l'enceinte des fortifications. J. Andriveau-Goujon, éditeur, 1849"", ""reference"": ""https://bibliotheques-specialisees.paris.fr/ark:/73873/pf0000852422"", ""description"": ""Plan de Paris comprenant l'enceinte des fortifications. J. Andriveau-Goujon, éditeur, 1849""}",Rue Des Rosiers
180,,atlas_andriveaugoujon_1849,street,48.85579722152448,2.367323099688091,1848,1850,"{""title"": ""Plan de Paris comprenant l'enceinte des fortifications. J. Andriveau-Goujon, éditeur, 1849"", ""reference"": ""https://bibliotheques-specialisees.paris.fr/ark:/73873/pf0000852422"", ""description"": ""Plan de Paris comprenant l'enceinte des fortifications. J. Andriveau-Goujon, éditeur, 1849""}",Rue Des Tournelles
181,,atlas_andriveaugoujon_1849,street,48.83744311759398,2.3539190015589986,1848,1850,"{""title"": ""Plan de Paris comprenant l'enceinte des fortifications. J. Andriveau-Goujon, éditeur, 1849"", ""reference"": ""https://bibliotheques-specialisees.paris.fr/ark:/73873/pf0000852422"", ""description"": ""Plan de Paris comprenant l'enceinte des fortifications. J. Andriveau-Goujon, éditeur, 1849""}",Rue Des Francs Bourgeois Saint Marcel
182,,atlas_andriveaugoujon_1849,street,48.87671932124859,2.3542691238845586,1848,1850,"{""title"": ""Plan de Paris comprenant l'enceinte des fortifications. J. Andriveau-Goujon, éditeur, 1849"", ""reference"": ""https://bibliotheques-specialisees.paris.fr/ark:/73873/pf0000852422"", ""description"": ""Plan de Paris comprenant l'enceinte des fortifications. J. Andriveau-Goujon, éditeur, 1849""}",Rue Chabrol
183,,atlas_andriveaugoujon_1849,street,48.8513182946154,2.3500083530837803,1848,1850,"{""title"": ""Plan de Paris comprenant l'enceinte des fortifications. J. Andriveau-Goujon, éditeur, 1849"", ""reference"": ""https://bibliotheques-specialisees.paris.fr/ark:/73873/pf0000852422"", ""description"": ""Plan de Paris comprenant l'enceinte des fortifications. J. Andriveau-Goujon, éditeur, 1849""}",Rue Des Grands Degrés
184,,atlas_andriveaugoujon_1849,street,48.83715590613065,2.3550852782882643,1848,1850,"{""title"": ""Plan de Paris comprenant l'enceinte des fortifications. J. Andriveau-Goujon, éditeur, 1849"", ""reference"": ""https://bibliotheques-specialisees.paris.fr/ark:/73873/pf0000852422"", ""description"": ""Plan de Paris comprenant l'enceinte des fortifications. J. Andriveau-Goujon, éditeur, 1849""}",Rue Des Fossés Saint-Marcel
185,,atlas_andriveaugoujon_1849,street,48.866592750654576,2.335611175387996,1848,1850,"{""title"": ""Plan de Paris comprenant l'enceinte des fortifications. J. Andriveau-Goujon, éditeur, 1849"", ""reference"": ""https://bibliotheques-specialisees.paris.fr/ark:/73873/pf0000852422"", ""description"": ""Plan de Paris comprenant l'enceinte des fortifications. J. Andriveau-Goujon, éditeur, 1849""}",Rue Saint-Anne
186,,atlas_andriveaugoujon_1849,street,48.86195920349391,2.3657344062882393,1848,1850,"{""title"": ""Plan de Paris comprenant l'enceinte des fortifications. J. Andriveau-Goujon, éditeur, 1849"", ""reference"": ""https://bibliotheques-specialisees.paris.fr/ark:/73873/pf0000852422"", ""description"": ""Plan de Paris comprenant l'enceinte des fortifications. J. Andriveau-Goujon, éditeur, 1849""}",Rue Neuve De Ménilmontant
187,,atlas_andriveaugoujon_1849,street,48.86938547940687,2.3168577708864895,1848,1850,"{""title"": ""Plan de Paris comprenant l'enceinte des fortifications. J. Andriveau-Goujon, éditeur, 1849"", ""reference"": ""https://bibliotheques-specialisees.paris.fr/ark:/73873/pf0000852422"", ""description"": ""Plan de Paris comprenant l'enceinte des fortifications. J. Andriveau-Goujon, éditeur, 1849""}",Rue De L'Élysée
188,,atlas_andriveaugoujon_1849,street,48.864864416832766,2.357279191607982,1848,1850,"{""title"": ""Plan de Paris comprenant l'enceinte des fortifications. J. Andriveau-Goujon, éditeur, 1849"", ""reference"": ""https://bibliotheques-specialisees.paris.fr/ark:/73873/pf0000852422"", ""description"": ""Plan de Paris comprenant l'enceinte des fortifications. J. Andriveau-Goujon, éditeur, 1849""}",Passage Frépillon
189,,atlas_andriveaugoujon_1849,street,48.860315603282544,2.357088200512423,1848,1850,"{""title"": ""Plan de Paris comprenant l'enceinte des fortifications. J. Andriveau-Goujon, éditeur, 1849"", ""reference"": ""https://bibliotheques-specialisees.paris.fr/ark:/73873/pf0000852422"", ""description"": ""Plan de Paris comprenant l'enceinte des fortifications. J. Andriveau-Goujon, éditeur, 1849""}",Rue Du Chaume
190,,atlas_andriveaugoujon_1849,street,48.852656659499125,2.370116041139393,1848,1850,"{""title"": ""Plan de Paris comprenant l'enceinte des fortifications. J. Andriveau-Goujon, éditeur, 1849"", ""reference"": ""https://bibliotheques-specialisees.paris.fr/ark:/73873/pf0000852422"", ""description"": ""Plan de Paris comprenant l'enceinte des fortifications. J. Andriveau-Goujon, éditeur, 1849""}",Cour De La Juiverie
191,,atlas_andriveaugoujon_1849,street,48.86450037621906,2.3425201268810434,1848,1850,"{""title"": ""Plan de Paris comprenant l'enceinte des fortifications. J. Andriveau-Goujon, éditeur, 1849"", ""reference"": ""https://bibliotheques-specialisees.paris.fr/ark:/73873/pf0000852422"", ""description"": ""Plan de Paris comprenant l'enceinte des fortifications. J. Andriveau-Goujon, éditeur, 1849""}",Rue Coq-Héron
192,,atlas_andriveaugoujon_1849,street,48.86370036806183,2.362999003904181,1848,1850,"{""title"": ""Plan de Paris comprenant l'enceinte des fortifications. J. Andriveau-Goujon, éditeur, 1849"", ""reference"": ""https://bibliotheques-specialisees.paris.fr/ark:/73873/pf0000852422"", ""description"": ""Plan de Paris comprenant l'enceinte des fortifications. J. Andriveau-Goujon, éditeur, 1849""}",Rue Du Forez
193,,atlas_andriveaugoujon_1849,street,48.859902234773116,2.3411525594548226,1848,1850,"{""title"": ""Plan de Paris comprenant l'enceinte des fortifications. J. Andriveau-Goujon, éditeur, 1849"", ""reference"": ""https://bibliotheques-specialisees.paris.fr/ark:/73873/pf0000852422"", ""description"": ""Plan de Paris comprenant l'enceinte des fortifications. J. Andriveau-Goujon, éditeur, 1849""}",Impasse De La Treille
194,,atlas_andriveaugoujon_1849,street,48.85489359459782,2.3443344407696323,1848,1850,"{""title"": ""Plan de Paris comprenant l'enceinte des fortifications. J. Andriveau-Goujon, éditeur, 1849"", ""reference"": ""https://bibliotheques-specialisees.paris.fr/ark:/73873/pf0000852422"", ""description"": ""Plan de Paris comprenant l'enceinte des fortifications. J. Andriveau-Goujon, éditeur, 1849""}",Rue Sainte-Anne
195,,atlas_andriveaugoujon_1849,street,48.86521577243094,2.3369759156080243,1848,1850,"{""title"": ""Plan de Paris comprenant l'enceinte des fortifications. J. Andriveau-Goujon, éditeur, 1849"", ""reference"": ""https://bibliotheques-specialisees.paris.fr/ark:/73873/pf0000852422"", ""description"": ""Plan de Paris comprenant l'enceinte des fortifications. J. Andriveau-Goujon, éditeur, 1849""}",Rue Montpensier
196,,atlas_andriveaugoujon_1849,street,48.851276610616694,2.3398439215389923,1848,1850,"{""title"": ""Plan de Paris comprenant l'enceinte des fortifications. J. Andriveau-Goujon, éditeur, 1849"", ""reference"": ""https://bibliotheques-specialisees.paris.fr/ark:/73873/pf0000852422"", ""description"": ""Plan de Paris comprenant l'enceinte des fortifications. J. Andriveau-Goujon, éditeur, 1849""}",Rue De L'Observance
197,,atlas_andriveaugoujon_1849,street,48.860890260612834,2.346527654356076,1848,1850,"{""title"": ""Plan de Paris comprenant l'enceinte des fortifications. J. Andriveau-Goujon, éditeur, 1849"", ""reference"": ""https://bibliotheques-specialisees.paris.fr/ark:/73873/pf0000852422"", ""description"": ""Plan de Paris comprenant l'enceinte des fortifications. J. Andriveau-Goujon, éditeur, 1849""}",Rue De La Lingerie
198,,atlas_andriveaugoujon_1849,street,48.86835497437805,2.3527774145754043,1848,1850,"{""title"": ""Plan de Paris comprenant l'enceinte des fortifications. J. Andriveau-Goujon, éditeur, 1849"", ""reference"": ""https://bibliotheques-specialisees.paris.fr/ark:/73873/pf0000852422"", ""description"": ""Plan de Paris comprenant l'enceinte des fortifications. J. Andriveau-Goujon, éditeur, 1849""}",Cour Saint-Chaumont
199,,atlas_andriveaugoujon_1849,street,48.87479432448374,2.3185186263526885,1848,1850,"{""title"": ""Plan de Paris comprenant l'enceinte des fortifications. J. Andriveau-Goujon, éditeur, 1849"", ""reference"": ""https://bibliotheques-specialisees.paris.fr/ark:/73873/pf0000852422"", ""description"": ""Plan de Paris comprenant l'enceinte des fortifications. J. Andriveau-Goujon, éditeur, 1849""}",Rue Saint-Jean Baptiste
200,,atlas_andriveaugoujon_1849,street,48.85147224509081,2.295451737975117,1848,1850,"{""title"": ""Plan de Paris comprenant l'enceinte des fortifications. J. Andriveau-Goujon, éditeur, 1849"", ""reference"": ""https://bibliotheques-specialisees.paris.fr/ark:/73873/pf0000852422"", ""description"": ""Plan de Paris comprenant l'enceinte des fortifications. J. Andriveau-Goujon, éditeur, 1849""}",Place Dupleix
201,,atlas_andriveaugoujon_1849,street,48.84866031959656,2.3629510809394705,1848,1850,"{""title"": ""Plan de Paris comprenant l'enceinte des fortifications. J. Andriveau-Goujon, éditeur, 1849"", ""reference"": ""https://bibliotheques-specialisees.paris.fr/ark:/73873/pf0000852422"", ""description"": ""Plan de Paris comprenant l'enceinte des fortifications. J. Andriveau-Goujon, éditeur, 1849""}",Quai Henry 4
202,,atlas_andriveaugoujon_1849,street,48.86577994428442,2.292227493428815,1848,1850,"{""title"": ""Plan de Paris comprenant l'enceinte des fortifications. J. Andriveau-Goujon, éditeur, 1849"", ""reference"": ""https://bibliotheques-specialisees.paris.fr/ark:/73873/pf0000852422"", ""description"": ""Plan de Paris comprenant l'enceinte des fortifications. J. Andriveau-Goujon, éditeur, 1849""}",Rue De La Croix Boissière
203,,atlas_andriveaugoujon_1849,street,48.84323978995967,2.331378710529898,1848,1850,"{""title"": ""Plan de Paris comprenant l'enceinte des fortifications. J. Andriveau-Goujon, éditeur, 1849"", ""reference"": ""https://bibliotheques-specialisees.paris.fr/ark:/73873/pf0000852422"", ""description"": ""Plan de Paris comprenant l'enceinte des fortifications. J. Andriveau-Goujon, éditeur, 1849""}",Rue Notre-Dame Des Champs
204,,atlas_andriveaugoujon_1849,street,48.877455891823146,2.3412952474033117,1848,1850,"{""title"": ""Plan de Paris comprenant l'enceinte des fortifications. J. Andriveau-Goujon, éditeur, 1849"", ""reference"": ""https://bibliotheques-specialisees.paris.fr/ark:/73873/pf0000852422"", ""description"": ""Plan de Paris comprenant l'enceinte des fortifications. J. Andriveau-Goujon, éditeur, 1849""}",Cour Saint-Guillaume
205,,atlas_andriveaugoujon_1849,street,48.849456573137765,2.3469047161878644,1848,1850,"{""title"": ""Plan de Paris comprenant l'enceinte des fortifications. J. Andriveau-Goujon, éditeur, 1849"", ""reference"": ""https://bibliotheques-specialisees.paris.fr/ark:/73873/pf0000852422"", ""description"": ""Plan de Paris comprenant l'enceinte des fortifications. J. Andriveau-Goujon, éditeur, 1849""}",Rue Saint-Jean De Beauvais
206,,atlas_andriveaugoujon_1849,street,48.854871811633664,2.3558954617510945,1848,1850,"{""title"": ""Plan de Paris comprenant l'enceinte des fortifications. J. Andriveau-Goujon, éditeur, 1849"", ""reference"": ""https://bibliotheques-specialisees.paris.fr/ark:/73873/pf0000852422"", ""description"": ""Plan de Paris comprenant l'enceinte des fortifications. J. Andriveau-Goujon, éditeur, 1849""}",Impasse Putigneux
207,,atlas_andriveaugoujon_1849,street,48.84957666933313,2.395404452376148,1848,1850,"{""title"": ""Plan de Paris comprenant l'enceinte des fortifications. J. Andriveau-Goujon, éditeur, 1849"", ""reference"": ""https://bibliotheques-specialisees.paris.fr/ark:/73873/pf0000852422"", ""description"": ""Plan de Paris comprenant l'enceinte des fortifications. J. Andriveau-Goujon, éditeur, 1849""}",Rue Des Ormeaux
208,,atlas_andriveaugoujon_1849,street,48.84812002374681,2.3464771911155693,1848,1850,"{""title"": ""Plan de Paris comprenant l'enceinte des fortifications. J. Andriveau-Goujon, éditeur, 1849"", ""reference"": ""https://bibliotheques-specialisees.paris.fr/ark:/73873/pf0000852422"", ""description"": ""Plan de Paris comprenant l'enceinte des fortifications. J. Andriveau-Goujon, éditeur, 1849""}",Rue D'Écosse
209,,atlas_andriveaugoujon_1849,street,48.85684555305564,2.385354223410338,1848,1850,"{""title"": ""Plan de Paris comprenant l'enceinte des fortifications. J. Andriveau-Goujon, éditeur, 1849"", ""reference"": ""https://bibliotheques-specialisees.paris.fr/ark:/73873/pf0000852422"", ""description"": ""Plan de Paris comprenant l'enceinte des fortifications. J. Andriveau-Goujon, éditeur, 1849""}",Rue De La Muette
210,,atlas_andriveaugoujon_1849,street,48.85679392727016,2.37428520234439,1848,1850,"{""title"": ""Plan de Paris comprenant l'enceinte des fortifications. J. Andriveau-Goujon, éditeur, 1849"", ""reference"": ""https://bibliotheques-specialisees.paris.fr/ark:/73873/pf0000852422"", ""description"": ""Plan de Paris comprenant l'enceinte des fortifications. J. Andriveau-Goujon, éditeur, 1849""}",Impasse Saint-Sabin
211,,atlas_andriveaugoujon_1849,street,48.84298106777874,2.354378069086375,1848,1850,"{""title"": ""Plan de Paris comprenant l'enceinte des fortifications. J. Andriveau-Goujon, éditeur, 1849"", ""reference"": ""https://bibliotheques-specialisees.paris.fr/ark:/73873/pf0000852422"", ""description"": ""Plan de Paris comprenant l'enceinte des fortifications. J. Andriveau-Goujon, éditeur, 1849""}",Rue Du Battoir
212,,atlas_andriveaugoujon_1849,street,48.85240805611897,2.3416216073333556,1848,1850,"{""title"": ""Plan de Paris comprenant l'enceinte des fortifications. J. Andriveau-Goujon, éditeur, 1849"", ""reference"": ""https://bibliotheques-specialisees.paris.fr/ark:/73873/pf0000852422"", ""description"": ""Plan de Paris comprenant l'enceinte des fortifications. J. Andriveau-Goujon, éditeur, 1849""}",Rue Du Battoir
213,,atlas_andriveaugoujon_1849,street,48.85144051194953,2.3097325490002194,1848,1850,"{""title"": ""Plan de Paris comprenant l'enceinte des fortifications. J. Andriveau-Goujon, éditeur, 1849"", ""reference"": ""https://bibliotheques-specialisees.paris.fr/ark:/73873/pf0000852422"", ""description"": ""Plan de Paris comprenant l'enceinte des fortifications. J. Andriveau-Goujon, éditeur, 1849""}",Avenue De Ségur
214,,atlas_andriveaugoujon_1849,street,48.84444764961306,2.331446457226964,1848,1850,"{""title"": ""Plan de Paris comprenant l'enceinte des fortifications. J. Andriveau-Goujon, éditeur, 1849"", ""reference"": ""https://bibliotheques-specialisees.paris.fr/ark:/73873/pf0000852422"", ""description"": ""Plan de Paris comprenant l'enceinte des fortifications. J. Andriveau-Goujon, éditeur, 1849""}",Rue Vavin
215,,atlas_andriveaugoujon_1849,street,48.87272223843746,2.3524516264700055,1848,1850,"{""title"": ""Plan de Paris comprenant l'enceinte des fortifications. J. Andriveau-Goujon, éditeur, 1849"", ""reference"": ""https://bibliotheques-specialisees.paris.fr/ark:/73873/pf0000852422"", ""description"": ""Plan de Paris comprenant l'enceinte des fortifications. J. Andriveau-Goujon, éditeur, 1849""}",Passage Des Petites Écuries
216,,atlas_andriveaugoujon_1849,street,48.85304163636203,2.3455324822927066,1848,1850,"{""title"": ""Plan de Paris comprenant l'enceinte des fortifications. J. Andriveau-Goujon, éditeur, 1849"", ""reference"": ""https://bibliotheques-specialisees.paris.fr/ark:/73873/pf0000852422"", ""description"": ""Plan de Paris comprenant l'enceinte des fortifications. J. Andriveau-Goujon, éditeur, 1849""}",Rue De La Huchette
217,,atlas_andriveaugoujon_1849,street,48.86526749970494,2.34309421450806,1848,1850,"{""title"": ""Plan de Paris comprenant l'enceinte des fortifications. J. Andriveau-Goujon, éditeur, 1849"", ""reference"": ""https://bibliotheques-specialisees.paris.fr/ark:/73873/pf0000852422"", ""description"": ""Plan de Paris comprenant l'enceinte des fortifications. J. Andriveau-Goujon, éditeur, 1849""}",Rue Soly
218,,atlas_andriveaugoujon_1849,street,48.86873750848998,2.3536376606869225,1848,1850,"{""title"": ""Plan de Paris comprenant l'enceinte des fortifications. J. Andriveau-Goujon, éditeur, 1849"", ""reference"": ""https://bibliotheques-specialisees.paris.fr/ark:/73873/pf0000852422"", ""description"": ""Plan de Paris comprenant l'enceinte des fortifications. J. Andriveau-Goujon, éditeur, 1849""}",Rue Neuve Saint-Denis
219,,atlas_andriveaugoujon_1849,street,48.87323420496887,2.344627350965426,1848,1850,"{""title"": ""Plan de Paris comprenant l'enceinte des fortifications. J. Andriveau-Goujon, éditeur, 1849"", ""reference"": ""https://bibliotheques-specialisees.paris.fr/ark:/73873/pf0000852422"", ""description"": ""Plan de Paris comprenant l'enceinte des fortifications. J. Andriveau-Goujon, éditeur, 1849""}",Rue De La Boule Rouge
220,,atlas_andriveaugoujon_1849,street,48.85156167597567,2.3515209438872535,1848,1850,"{""title"": ""Plan de Paris comprenant l'enceinte des fortifications. J. Andriveau-Goujon, éditeur, 1849"", ""reference"": ""https://bibliotheques-specialisees.paris.fr/ark:/73873/pf0000852422"", ""description"": ""Plan de Paris comprenant l'enceinte des fortifications. J. Andriveau-Goujon, éditeur, 1849""}",Pont De L'Archevéché
221,,atlas_andriveaugoujon_1849,street,48.83444069647304,2.3356326469278805,1848,1850,"{""title"": ""Plan de Paris comprenant l'enceinte des fortifications. J. Andriveau-Goujon, éditeur, 1849"", ""reference"": ""https://bibliotheques-specialisees.paris.fr/ark:/73873/pf0000852422"", ""description"": ""Plan de Paris comprenant l'enceinte des fortifications. J. Andriveau-Goujon, éditeur, 1849""}",Impasse De Longue-Avoine
222,,atlas_andriveaugoujon_1849,street,48.87707010957392,2.3436915850160167,1848,1850,"{""title"": ""Plan de Paris comprenant l'enceinte des fortifications. J. Andriveau-Goujon, éditeur, 1849"", ""reference"": ""https://bibliotheques-specialisees.paris.fr/ark:/73873/pf0000852422"", ""description"": ""Plan de Paris comprenant l'enceinte des fortifications. J. Andriveau-Goujon, éditeur, 1849""}",Impasse Briar
223,,atlas_andriveaugoujon_1849,street,48.86435582608731,2.357887184679553,1848,1850,"{""title"": ""Plan de Paris comprenant l'enceinte des fortifications. J. Andriveau-Goujon, éditeur, 1849"", ""reference"": ""https://bibliotheques-specialisees.paris.fr/ark:/73873/pf0000852422"", ""description"": ""Plan de Paris comprenant l'enceinte des fortifications. J. Andriveau-Goujon, éditeur, 1849""}",Rue Des Vertus
224,,atlas_andriveaugoujon_1849,street,48.85791170694384,2.350504607068249,1848,1850,"{""title"": ""Plan de Paris comprenant l'enceinte des fortifications. J. Andriveau-Goujon, éditeur, 1849"", ""reference"": ""https://bibliotheques-specialisees.paris.fr/ark:/73873/pf0000852422"", ""description"": ""Plan de Paris comprenant l'enceinte des fortifications. J. Andriveau-Goujon, éditeur, 1849""}",Rue Jean-Pain Mollet
225,,atlas_andriveaugoujon_1849,street,48.867466068348584,2.3530806208713275,1848,1850,"{""title"": ""Plan de Paris comprenant l'enceinte des fortifications. J. Andriveau-Goujon, éditeur, 1849"", ""reference"": ""https://bibliotheques-specialisees.paris.fr/ark:/73873/pf0000852422"", ""description"": ""Plan de Paris comprenant l'enceinte des fortifications. J. Andriveau-Goujon, éditeur, 1849""}",Rue Du Ponceau
226,,atlas_andriveaugoujon_1849,street,48.87514511741079,2.351798691881689,1848,1850,"{""title"": ""Plan de Paris comprenant l'enceinte des fortifications. J. Andriveau-Goujon, éditeur, 1849"", ""reference"": ""https://bibliotheques-specialisees.paris.fr/ark:/73873/pf0000852422"", ""description"": ""Plan de Paris comprenant l'enceinte des fortifications. J. Andriveau-Goujon, éditeur, 1849""}",Rue De Paradis Poissonnière
227,,atlas_andriveaugoujon_1849,street,48.85446067826627,2.368114859675081,1848,1850,"{""title"": ""Plan de Paris comprenant l'enceinte des fortifications. J. Andriveau-Goujon, éditeur, 1849"", ""reference"": ""https://bibliotheques-specialisees.paris.fr/ark:/73873/pf0000852422"", ""description"": ""Plan de Paris comprenant l'enceinte des fortifications. J. Andriveau-Goujon, éditeur, 1849""}",Rue Jean Beau Sire
228,,atlas_andriveaugoujon_1849,street,48.875388765109086,2.299270496646387,1848,1850,"{""title"": ""Plan de Paris comprenant l'enceinte des fortifications. J. Andriveau-Goujon, éditeur, 1849"", ""reference"": ""https://bibliotheques-specialisees.paris.fr/ark:/73873/pf0000852422"", ""description"": ""Plan de Paris comprenant l'enceinte des fortifications. J. Andriveau-Goujon, éditeur, 1849""}",Avenue Sainte-Marie
229,,atlas_andriveaugoujon_1849,street,48.8609792006433,2.320161705357632,1848,1850,"{""title"": ""Plan de Paris comprenant l'enceinte des fortifications. J. Andriveau-Goujon, éditeur, 1849"", ""reference"": ""https://bibliotheques-specialisees.paris.fr/ark:/73873/pf0000852422"", ""description"": ""Plan de Paris comprenant l'enceinte des fortifications. J. Andriveau-Goujon, éditeur, 1849""}",Rue Courty
230,,atlas_andriveaugoujon_1849,street,48.875221590481125,2.3038611733624803,1848,1850,"{""title"": ""Plan de Paris comprenant l'enceinte des fortifications. J. Andriveau-Goujon, éditeur, 1849"", ""reference"": ""https://bibliotheques-specialisees.paris.fr/ark:/73873/pf0000852422"", ""description"": ""Plan de Paris comprenant l'enceinte des fortifications. J. Andriveau-Goujon, éditeur, 1849""}",Rue Des Écuries D'Artois
231,,atlas_andriveaugoujon_1849,street,48.870217274158605,2.3455280165626653,1848,1850,"{""title"": ""Plan de Paris comprenant l'enceinte des fortifications. J. Andriveau-Goujon, éditeur, 1849"", ""reference"": ""https://bibliotheques-specialisees.paris.fr/ark:/73873/pf0000852422"", ""description"": ""Plan de Paris comprenant l'enceinte des fortifications. J. Andriveau-Goujon, éditeur, 1849""}",Rue Saint-Fiacre
232,,atlas_andriveaugoujon_1849,street,48.866688305111055,2.356265437714075,1848,1850,"{""title"": ""Plan de Paris comprenant l'enceinte des fortifications. J. Andriveau-Goujon, éditeur, 1849"", ""reference"": ""https://bibliotheques-specialisees.paris.fr/ark:/73873/pf0000852422"", ""description"": ""Plan de Paris comprenant l'enceinte des fortifications. J. Andriveau-Goujon, éditeur, 1849""}",Rue Vaucanson
233,,atlas_andriveaugoujon_1849,street,48.87732792101183,2.3649835932737955,1848,1850,"{""title"": ""Plan de Paris comprenant l'enceinte des fortifications. J. Andriveau-Goujon, éditeur, 1849"", ""reference"": ""https://bibliotheques-specialisees.paris.fr/ark:/73873/pf0000852422"", ""description"": ""Plan de Paris comprenant l'enceinte des fortifications. J. Andriveau-Goujon, éditeur, 1849""}",Quai De Valmy
234,,atlas_andriveaugoujon_1849,street,48.84928028075892,2.364310588076823,1848,1850,"{""title"": ""Plan de Paris comprenant l'enceinte des fortifications. J. Andriveau-Goujon, éditeur, 1849"", ""reference"": ""https://bibliotheques-specialisees.paris.fr/ark:/73873/pf0000852422"", ""description"": ""Plan de Paris comprenant l'enceinte des fortifications. J. Andriveau-Goujon, éditeur, 1849""}",Quai Morland
235,,atlas_andriveaugoujon_1849,street,48.859140213884835,2.3439044075495503,1848,1850,"{""title"": ""Plan de Paris comprenant l'enceinte des fortifications. J. Andriveau-Goujon, éditeur, 1849"", ""reference"": ""https://bibliotheques-specialisees.paris.fr/ark:/73873/pf0000852422"", ""description"": ""Plan de Paris comprenant l'enceinte des fortifications. J. Andriveau-Goujon, éditeur, 1849""}",Rue Thibautodé
236,,atlas_andriveaugoujon_1849,street,48.84678875770232,2.3259997322130075,1848,1850,"{""title"": ""Plan de Paris comprenant l'enceinte des fortifications. J. Andriveau-Goujon, éditeur, 1849"", ""reference"": ""https://bibliotheques-specialisees.paris.fr/ark:/73873/pf0000852422"", ""description"": ""Plan de Paris comprenant l'enceinte des fortifications. J. Andriveau-Goujon, éditeur, 1849""}",Rue De Vaugirard
237,,atlas_andriveaugoujon_1849,street,48.85985774757277,2.346652279612313,1848,1850,"{""title"": ""Plan de Paris comprenant l'enceinte des fortifications. J. Andriveau-Goujon, éditeur, 1849"", ""reference"": ""https://bibliotheques-specialisees.paris.fr/ark:/73873/pf0000852422"", ""description"": ""Plan de Paris comprenant l'enceinte des fortifications. J. Andriveau-Goujon, éditeur, 1849""}",Rue Des Fourreurs
238,,atlas_andriveaugoujon_1849,street,48.87423300241945,2.3287508917236366,1848,1850,"{""title"": ""Plan de Paris comprenant l'enceinte des fortifications. J. Andriveau-Goujon, éditeur, 1849"", ""reference"": ""https://bibliotheques-specialisees.paris.fr/ark:/73873/pf0000852422"", ""description"": ""Plan de Paris comprenant l'enceinte des fortifications. J. Andriveau-Goujon, éditeur, 1849""}",Rue Saint-Nicolas
239,,atlas_andriveaugoujon_1849,street,48.85095769256168,2.374100007166389,1848,1850,"{""title"": ""Plan de Paris comprenant l'enceinte des fortifications. J. Andriveau-Goujon, éditeur, 1849"", ""reference"": ""https://bibliotheques-specialisees.paris.fr/ark:/73873/pf0000852422"", ""description"": ""Plan de Paris comprenant l'enceinte des fortifications. J. Andriveau-Goujon, éditeur, 1849""}",Rue Saint-Nicolas
240,,atlas_andriveaugoujon_1849,street,48.87978963966824,2.3386713763503835,1848,1850,"{""title"": ""Plan de Paris comprenant l'enceinte des fortifications. J. Andriveau-Goujon, éditeur, 1849"", ""reference"": ""https://bibliotheques-specialisees.paris.fr/ark:/73873/pf0000852422"", ""description"": ""Plan de Paris comprenant l'enceinte des fortifications. J. Andriveau-Goujon, éditeur, 1849""}",Rue De Navarin
